ROUTE_NUMBER,ROUTE_NAME, Seq ,STOP_ID,STOP,LAT,LON
5,5:05,1,3609,Cary/Nansemond,37.555349,-77.486931
5,5:05,2,3604,Cary/Freeman,37.554544,-77.484724
5,5:05,3,3608,Cary/McCloy,37.55365,-77.482218
5,5:05,4,331,CARY/BELMONT,37.552827,-77.480022
5,5:05,5,332,CARY/SHEPPARD,37.552382,-77.478512
5,5:05,6,333,CARY/BOULEVARD,37.551618,-77.476405
5,5:05,7,3473,Cary/Robinson,37.550647,-77.473743
5,5:05,8,3472,Cary/Addison,37.549457,-77.470417
5,5:05,9,3611,Cary/Rowland,37.548527,-77.467836
5,5:05,10,2529,CARY/GRANBY,37.547494,-77.464959
5,5:05,11,3607,Cary/Lombardy,37.546267,-77.461362
5,5:05,12,3610,Cary/Randolph,37.545136,-77.458266
5,5:05,13,3605,Cary/Harrison,37.544486,-77.455505
5,5:05,14,3606,Cary/Laurel,37.544494,-77.451787
5,5:05,15,3602,Cary/Belvidere,37.543991,-77.448296
5,5:05,16,3603,Cary/Foushee,37.542268,-77.445437
5,5:05,17,350,CARY/3RD,37.540618,-77.442692
5,5:05,18,2473,CARY/6TH,37.538994,-77.44
5,5:05,19,1148,CARY/8TH,37.538037,-77.43833
5,5:05,20,1149,9TH/CARY,37.537702,-77.436692
5,5:05,21,826,9TH/MAIN,37.538421,-77.436012
5,5:05,22,3428,9th/Marshall (Mid-block between Marshall +Broad,37.541163,-77.433362
5,5:05,23,2628,TRANSFER PLAZA BAY I,37.542995,-77.431837
5,5:05,24,998,MOSBY/P,37.541795,-77.419128
5,5:05,25,3705,Leigh/11th  EB,37.542511,-77.429163
5,5:05,26,3042,MOSBY/FAIRMOUNT,37.543917,-77.417102
5,5:05,27,3044,MECHANICSVILLE PIKE/BRAUERS LANE,37.546755,-77.415752
5,5:05,28,3045,MECHANICSVILLE PIKE/FAIRFIELD,37.548648,-77.414533
5,5:05,29,1004,MECHANICSVILLE PIKE/CARVER,37.550652,-77.413335
5,5:05,30,1005,MECHANICSVILLE PIKE/PHAUP,37.552278,-77.412318
5,5:05,31,1006,WHITCOMB/MECHANICSVILLE PIKE,37.554111,-77.412237
5,5:05,32,1007,WHITCOMB/DEFOREST,37.554478,-77.414257
5,5:05,33,1009,WHITCOMB/REDWOOD,37.55401,-77.417825
5,5:05,34,1028,WHITCOMB/LEBANON,37.55366,-77.420798
5,5:05,35,1029,MECKLENBURG/WOOD,37.552853,-77.422243
5,5:05,36,2665,OLIVER HILL/HOSPITAL,37.549767,-77.423977
5,5:05,37,2700,FAIRFIELD WAY/ENTRANCE TO CITY JAIL,37.548092,-77.422791
5,5:05,38,1033,HILDRETH/FORD,37.549534,-77.419886
5,5:05,39,2667,FORD/SUSSEX,37.549965,-77.417667
5,5:05,40,1036,FORD/MECHANICSVILLE PIKE,37.549555,-77.41448
5,5:05,41,293,ACCOMODATION/GAY,37.548653,-77.417372
5,5:05,42,294,COALTER/RICHMOND,37.547632,-77.418907
5,5:05,43,295,COALTER/REDD,37.545883,-77.419662
5,5:05,44,2813,MECHANICSVILLE PIKE/LITTLEPAGE,37.5438,-77.417341
5,5:05,45,1041,MOSBY/P,37.54139,-77.419645
5,5:05,46,674,10TH/MARSHALL,37.540721,-77.432685
5,5:05,47,3706,Leigh/11th,37.542768,-77.42905
5,5:05,48,125,BROAD/9TH,37.54079,-77.433617
5,5:05,49,2644,TRANSFER PLAZA BAY E,37.542387,-77.432306
5,5:05,50,922,8TH/CLAY,37.542883,-77.433374
5,5:05,51,298,8TH/MARSHALL,37.541891,-77.43432
5,5:05,52,2965,8TH/GRACE,37.540293,-77.435842
5,5:05,53,2472,8TH/MAIN,37.538913,-77.437161
5,5:05,54,3514,Main/5th,37.540357,-77.439737
5,5:05,55,3412,Main/1st,37.542502,-77.443305
5,5:05,56,3416,Main/Monroe,37.545098,-77.44766
5,5:05,57,3414,Main/Laurel,37.545877,-77.450052
5,5:05,58,3415,Main/Harrison,37.545971,-77.455191
5,5:05,59,3414,Main/Laurel,37.54587953,-77.4501442
5,5:05,60,3414,Main/Laurel,37.54587967,-77.45014911
5,5:05,61,3414,Main/Laurel,37.54587957,-77.45014565
5,5:05,62,3414,Main/Laurel,37.54587978,-77.4501532
5,5:05,63,3414,Main/Laurel,37.54587934,-77.45013722
5,5:05,64,3414,Main/Laurel,37.54587947,-77.45014174
5,5:05,65,3417,Main/Plum,37.547005,-77.459501
5,5:05,66,3413,Main/Allen,37.548355,-77.463237
5,5:05,67,3513,Main/Rowland,37.549663,-77.466966
5,5:05,68,3418,Main/Stafford,37.55107,-77.470644
5,5:05,69,423,MAIN/BOULEVARD,37.552683,-77.475383
5,5:05,70,425,ELLWOOD/SHEPPARD,37.553585,-77.478065
5,5:05,71,426,ELLWOOD/BELMONT,37.554205,-77.479667
5,5:05,72,428,ELLWOOD/DOOLEY,37.555382,-77.483002
5,5:05,73,2746,ELLWOOD/NANSEMOND,37.55676,-77.486975
8,8:08,74,2616,TRANSFER PLAZA BAY G,37.542757,-77.432003
8,8:08,75,674,10TH/MARSHALL,37.540721,-77.432685
8,8:08,76,3105,BROAD/11TH,37.539237,-77.43153
8,8:08,77,100,BROAD/18TH,37.535568,-77.425369
8,8:08,78,101,BROAD/19TH,37.53498,-77.4244
8,8:08,79,2570,21ST/BROAD,37.534535,-77.42168
8,8:08,80,211,JEFFERSON/MARSHALL,37.534692,-77.420866
8,8:08,81,212,JEFFERSON/23RD,37.534815,-77.418836
8,8:08,82,213,JEFFERSON/25TH,37.535007,-77.41595
8,8:08,83,2716,25TH/CEDAR,37.535797,-77.414726
8,8:08,84,1802,25TH/Q,37.537467,-77.413142
8,8:08,85,1803,25TH/R,37.539237,-77.411468
8,8:08,86,3385,25th/S,37.540009,-77.410769
8,8:08,87,1804,NINE MILE/27TH,37.540842,-77.407343
8,8:08,88,1805,NINE MILE/29TH,37.541327,-77.403942
8,8:08,89,1806,NINE MILE/31ST,37.541638,-77.401732
8,8:08,90,1807,NINE MILE/BUNCHE PL,37.543425,-77.396233
8,8:08,91,1808,NINE MILE/GORDON LANE,37.543397,-77.388618
8,8:08,92,2717,NINE MILE/ECHO,37.542488,-77.385945
8,8:08,93,1810,NINE MILE/MASONIC,37.540592,-77.378065
8,8:08,94,1811,NINE MILE/MARLIN,37.541112,-77.374353
8,8:08,95,1758,NINE MILE/MEADOWSPRING,37.54224,-77.372295
8,8:08,96,3212,Nine Mile/Kenway,37.545469,-77.366715
8,8:08,97,3049,NINE MILE/CEDAR FORK,37.546162,-77.364546
8,8:08,98,3561,Eastgate/Nine Mile,37.5452,-77.362742
8,8:08,99,3562,Colwyck/Laburnum,37.543107,-77.365639
8,8:08,100,1812,NINE MILE/WATSON,37.543552,-77.370991
8,8:08,101,1813,NINE MILE/E RICHMOND,37.54133,-77.374322
8,8:08,102,1814,NINE MILE/MASONIC,37.540785,-77.378797
8,8:08,103,1816,NINE MILE/ECHO,37.542638,-77.385822
8,8:08,104,1817,NINE MILE/GORDON LANE,37.543893,-77.38958
8,8:08,105,1818,NINE MILE/BUNCHE PLACE,37.54344,-77.396575
8,8:08,106,233,NINE MILE/30TH,37.541732,-77.401763
8,8:08,107,234,NINE MILE/29TH,37.541473,-77.403433
8,8:08,108,1820,NINE MILE/27TH,37.541028,-77.406738
8,8:08,109,3363,25TH/S,37.540077,-77.410861
8,8:08,110,1821,25TH/R,37.539355,-77.411547
8,8:08,111,1822,25TH/VENABLE,37.537601,-77.413202
8,8:08,112,244,JEFFERSON/23RD,37.535,-77.418215
8,8:08,113,119,21ST/MARSHALL,37.534149,-77.422238
8,8:08,114,120,BROAD/19TH,37.534962,-77.424151
8,8:08,115,122,BROAD/17TH,37.536062,-77.425916
8,8:08,116,3055,BROAD/12TH,37.539599,-77.431641
8,8:08,117,125,BROAD/9TH,37.54079,-77.433617
8,8:08,118,3428,9th/Marshall (Mid-block between Marshall +Broad,37.541163,-77.433362
12,12:12,119,1753,MARSHALL/3RD,37.544935,-77.438568
12,12:12,120,91,BROAD/4TH,37.543527,-77.438515
12,12:12,121,297,MARSHALL/7TH,37.542469,-77.434554
12,12:12,122,3057,BROAD/9TH,37.541063,-77.434492
12,12:12,123,2616,TRANSFER PLAZA BAY G,37.542757,-77.432003
12,12:12,124,2632,TRANSFER PLAZA BAY H,37.542873,-77.431757
12,12:12,125,1042,MOSBY/LEIGH,37.540213,-77.42017
12,12:12,126,3424,Venable/22nd,37.538243,-77.418042
12,12:12,127,3541,Venable/Pink,37.538235,-77.414627
12,12:12,128,1803,25TH/R,37.539237,-77.411468
12,12:12,129,3385,25th/S,37.540009,-77.410769
12,12:12,130,3490,FAIRMOUNT/24TH,37.540775,-77.411433
12,12:12,131,980,22ND/FAIRMOUNT,37.542265,-77.412857
12,12:12,132,981,22ND/U,37.54394,-77.411249
12,12:12,133,982,22ND/W,37.545351,-77.409939
12,12:12,134,3370,X/22nd,37.546607,-77.409284
12,12:12,135,3371,21st/Fairfield,37.54832,-77.408876
12,12:12,136,3372,21st/Phaup,37.550734,-77.40736
12,12:12,137,3482,COOL/23RD,37.55196,-77.405457
12,12:12,138,3374,25th/Phaup,37.550157,-77.403423
12,12:12,139,3504,Kane/Fairfield,37.548544,-77.399158
12,12:12,140,228,Kane/29th,37.546696,-77.397805
12,12:12,141,229,CREIGHTON/KANE,37.545685,-77.397902
12,12:12,142,230,CREIGHTON AT COMMUNITY CENTER,37.544803,-77.398878
12,12:12,143,232,CREIGHTON/NINE MILE,37.54261,-77.400332
12,12:12,144,233,NINE MILE/30TH,37.541732,-77.401763
12,12:12,145,234,NINE MILE/29TH,37.541473,-77.403433
12,12:12,146,235,28TH/U,37.540387,-77.406219
12,12:12,147,3444,31st/U,37.538636,-77.403671
12,12:12,148,3442,31st/R,37.536145,-77.405898
12,12:12,149,3440,31st/O,37.533692,-77.408247
12,12:12,150,241,M/30TH,37.532666,-77.411318
12,12:12,151,242,M/27TH,37.53396,-77.413451
12,12:12,152,2584,25TH/LEIGH,37.534128,-77.416513
12,12:12,153,3614,25th/BROAD,37.531801,-77.418747
12,12:12,154,398,MAIN/25TH,37.529325,-77.421505
12,12:12,155,3373,23rd/Franklin,37.530838,-77.422331
12,12:12,156,3613,25th/BROAD,37.531707,-77.41863
12,12:12,157,974,25TH/LEIGH,37.534142,-77.41634
12,12:12,158,214,M/27TH,37.534043,-77.413907
12,12:12,159,215,M/29TH,37.532668,-77.411667
12,12:12,160,3439,31st/O,37.533376,-77.408322
12,12:12,161,3441,31st/R,37.53586,-77.405885
12,12:12,162,3443,31st/U,37.538435,-77.403462
12,12:12,163,3539,U/28th,37.540266,-77.40598
12,12:12,164,1805,NINE MILE/29TH,37.541327,-77.403942
12,12:12,165,1806,NINE MILE/31ST,37.541638,-77.401732
12,12:12,166,3369,Creighton/Nine Mile,37.542493,-77.40017
12,12:12,167,3484,Creighton at Community Center,37.544616,-77.398774
12,12:12,168,3483,Creighton/Walcott,37.545505,-77.397931
12,12:12,169,3503,Kane/Fairfield,37.548442,-77.398804
12,12:12,170,2572,25TH/PHAUP,37.550465,-77.40302
12,12:12,171,2435,COOL LANE/23RD,37.552138,-77.405395
12,12:12,172,990,21ST/PHAUP,37.550683,-77.4077
12,12:12,173,992,21ST/FAIRFIELD,37.54824,-77.409218
12,12:12,174,1017,X/22ND,37.546405,-77.409345
12,12:12,175,1018,22ND/W,37.545624,-77.409861
12,12:12,176,1020,22ND/U,37.543897,-77.411587
12,12:12,177,1021,22ND/FAIRMOUNT,37.542332,-77.412977
12,12:12,178,3489,FAIRMOUNT/24TH,37.540723,-77.411636
12,12:12,179,1821,25TH/R,37.539355,-77.411547
12,12:12,180,3540,Venable/Pink,37.538382,-77.414376
12,12:12,181,3425,Venable/22nd,37.538367,-77.417721
12,12:12,182,996,MOSBY/VENABLE,37.538663,-77.420282
12,12:12,183,997,MOSBY/O,37.540274,-77.419984
12,12:12,184,674,10TH/MARSHALL,37.540721,-77.432685
12,12:12,185,3244,BROAD/7TH,37.541538,-77.434838
12,12:12,186,128,BROAD/4TH,37.543761,-77.438541
12,12:12,187,3438,2nd/Broad,37.544792,-77.439822
12,12:12,188,3428,9th/Marshall (Mid-block between Marshall +Broad,37.541163,-77.433362
13,Route #13,189,3373,23rd/Franklin,37.530838,-77.422331
13,Route #13,190,3613,25th/BROAD,37.531707,-77.41863
13,Route #13,191,106,MARSHALL/27TH,37.53144,-77.41634
13,Route #13,192,107,MARSHALL/29TH,37.530307,-77.414488
13,Route #13,193,108,MARSHALL/31ST,37.529198,-77.412692
13,Route #13,194,109,MARSHALL/33RD,37.528102,-77.410903
13,Route #13,195,362,MARSHALL/CHIMBORAZO BOULEVARD,37.527013,-77.409102
13,Route #13,196,111,CHIMBORAZO BOULEVARD/LEIGH,37.529057,-77.408281
13,Route #13,197,113,CHIMBORAZO BOULEVARD/N,37.530863,-77.406532
13,Route #13,198,114,CHIMBORAZO BOULEVARD/O,37.53202,-77.405403
13,Route #13,199,116,P/35TH,37.531952,-77.403623
13,Route #13,200,117,R/36TH,37.53233,-77.401398
13,Route #13,201,158,35TH/CANEPA,37.533125,-77.399413
13,Route #13,202,3384,E Richmond/Oakwood,37.53448,-77.396552
13,Route #13,203,162,OAKWOOD/BOXLEY,37.534292,-77.39853
13,Route #13,204,146,OAKWOOD/Q,37.533365,-77.403653
13,Route #13,205,147,CHIMBORAZO BOULEVARD/P,37.532528,-77.40511
13,Route #13,206,148,CHIMBORAZO BOULEVARD/N,37.531142,-77.406422
13,Route #13,207,150,CHIMBORAZO BOULEVARD/LEIGH,37.529382,-77.408098
13,Route #13,208,151,MARSHALL/CHIMBORAZO BOULEVARD,37.527728,-77.409997
13,Route #13,209,152,MARSHALL/33RD,37.528376,-77.411059
13,Route #13,210,153,MARSHALL/31ST,37.52914,-77.412301
13,Route #13,211,154,MARSHALL/29TH,37.530203,-77.414138
13,Route #13,212,155,MARSHALL/27TH,37.531377,-77.416053
13,Route #13,213,3614,25th/BROAD,37.531801,-77.418747
13,Route #13,214,398,MAIN/25TH,37.529325,-77.421505
14,14:14,215,2177,CHAMBERLAYNE/WILMER,37.605325,-77.450258
14,14:14,216,2178,CHAMBERLAYNE/BROOK HILL AZALEA SHOPPING CENTER,37.603894,-77.450631
14,14:14,217,2187,Azalea/Seminary,37.601741,-77.452458
14,14:14,218,2188,BROOK RD/AZALEA,37.600247,-77.454232
14,14:14,219,2680,BROOK/WESTBROOK,37.597455,-77.453722
14,14:14,220,3427,Westbrook/Stratford,37.596634,-77.457621
14,14:14,221,858,WESTBROOK/CRESTWOOD,37.596457,-77.46167
14,14:14,222,3183,Hermitage/Westbrook,37.595362,-77.466423
14,14:14,223,860,HERMITAGE/PRINCETON,37.592912,-77.46527
14,14:14,224,885,HERMITAGE/BELLEVUE,37.590751,-77.464298
14,14:14,225,887,HERMITAGE/CLAREMONT,37.587149,-77.463855
14,14:14,226,888,HERMITAGE/LABURNUM,37.584384,-77.462729
14,14:14,227,890,HERMITAGE/MAPLE SHADE LN,37.582045,-77.46228
14,14:14,228,893,HERMITAGE/OAKDALE,37.579333,-77.46175
14,14:14,229,898,BOULEVARD/WESTWOOD,37.577848,-77.461925
14,14:14,230,900,BOULEVARD/ELLEN,37.574309,-77.46391
14,14:14,231,3497,Hermitage/Sherwood,37.571302,-77.460964
14,14:14,232,3495,Hermitage/Rhoadmiller,37.566688,-77.46074
14,14:14,233,3420,Overbrook/Hermitage,37.565427,-77.458554
14,14:14,234,3432,Overbrook/1400 Overbrook,37.565403,-77.454832
14,14:14,235,2551,OVERBROOK/LANGSTON,37.565318,-77.45145
14,14:14,236,3217,Overbrook/Brook,37.565392,-77.448994
14,14:14,237,876,BROOK/LOMBARDY,37.562912,-77.448223
14,14:14,238,878,LOMBARDY/ADMIRAL,37.560448,-77.450359
14,14:14,239,879,LOMBARDY/MAGGIE WALKER HIGH SCHOOL,37.557583,-77.453057
14,14:14,240,3512,Lombardy/Broad,37.555706,-77.454767
14,14:14,241,81,BROAD/RYLAND,37.552667,-77.453978
14,14:14,242,3082,BROAD/SHAFER,37.550628,-77.45048
14,14:14,243,84,BROAD/LAUREL,37.549331,-77.44841
14,14:14,244,85,BROAD/HENRY,37.548248,-77.446443
14,14:14,245,3108,BROAD/ADAMS,37.545928,-77.442727
14,14:14,246,91,BROAD/4TH,37.543527,-77.438515
14,14:14,247,3057,BROAD/9TH,37.541063,-77.434492
14,14:14,248,3428,9th/Marshall (Mid-block between Marshall +Broad,37.541163,-77.433362
14,14:14,249,2635,Transfer Plaza Bay J,37.543394,-77.431354
14,14:14,250,674,10TH/MARSHALL,37.540721,-77.432685
14,14:14,251,125,BROAD/9TH,37.54079,-77.433617
14,14:14,252,3244,BROAD/7TH,37.541538,-77.434838
14,14:14,253,2684,5TH/GRACE,37.541945,-77.438505
14,14:14,254,405,5TH/MAIN,37.540595,-77.439752
14,14:14,255,2473,CARY/6TH,37.538994,-77.44
14,14:14,256,1148,CARY/8TH,37.538037,-77.43833
14,14:14,257,278,CARY/10TH,37.536502,-77.435829
14,14:14,258,279,MAIN/13TH,37.536259,-77.433173
14,14:14,259,280,MAIN/14TH,37.535295,-77.431702
14,14:14,260,3058,MAIN/15TH,37.534638,-77.430588
14,14:14,261,354,MAIN/18TH,37.532727,-77.427473
14,14:14,262,356,MAIN/21ST,37.531082,-77.424763
14,14:14,263,3373,23rd/Franklin,37.530838,-77.422331
14,14:14,264,398,MAIN/25TH,37.529325,-77.421505
14,14:14,265,400,MAIN/21ST,37.531282,-77.424708
14,14:14,266,402,MAIN/18TH,37.532809,-77.427335
14,14:14,267,307,MAIN/17TH,37.533863,-77.429037
14,14:14,268,3056,MAIN/15TH,37.534847,-77.430643
14,14:14,269,309,MAIN/13TH,37.53626,-77.432866
14,14:14,270,310,MAIN/11TH,37.537213,-77.434363
14,14:14,271,311,MAIN/10TH,37.538202,-77.436136
14,14:14,272,312,MAIN/8TH,37.538738,-77.437021
14,14:14,273,3514,Main/5th,37.540357,-77.439737
14,14:14,274,3411,4th/Franklin,37.542033,-77.439728
14,14:14,275,2632,TRANSFER PLAZA BAY H,37.542873,-77.431757
14,14:14,276,2644,TRANSFER PLAZA BAY E,37.542387,-77.432306
14,14:14,277,128,BROAD/4TH,37.543761,-77.438541
14,14:14,278,3084,Broad/Adams,37.546367,-77.443014
14,14:14,279,134,BROAD/HENRY,37.548473,-77.446407
14,14:14,280,135,BROAD/GILMER,37.549384,-77.447967
14,14:14,281,3400,Broad/Hancock,37.551051,-77.450768
14,14:14,282,138,BROAD/RYLAND,37.552809,-77.453686
14,14:14,283,139,BROAD/BOWE,37.554009,-77.455701
14,14:14,284,827,LOMBARDY/KROGERS,37.55568,-77.454638
14,14:14,285,828,LOMBARDY/W MOORE,37.557837,-77.45266
14,14:14,286,829,LOMBARDY/ADMIRAL,37.559918,-77.450691
14,14:14,287,831,BROOK/LOMBARDY,37.563544,-77.448125
14,14:14,288,809,OVERBROOK/BROOK,37.565347,-77.44901
14,14:14,289,810,OVERBROOK/LANGSTON,37.56537,-77.4518
14,14:14,290,3419,Overbrook/1405,37.565533,-77.454678
14,14:14,291,3421,Overbrook/Hermitage,37.565543,-77.458532
14,14:14,292,3496,Hermitage/Rhoadmiller,37.566796,-77.460483
14,14:14,293,3498,Hermitage/Sherwood,37.570402,-77.460637
14,14:14,294,909,BOULEVARD/ROBINHOOD,37.574593,-77.463483
14,14:14,295,918,BOULEVARD/BROOKLAND PARKWAY,37.577305,-77.461951
14,14:14,296,853,HERMITAGE/PALMYRA,37.579209,-77.461488
14,14:14,297,855,HERMITAGE/MAPLE SHADE LN,37.58208,-77.462037
14,14:14,298,911,HERMITAGE/LABURNUM,37.584782,-77.462513
14,14:14,299,912,HERMITAGE/CLAREMONT,37.586889,-77.463416
14,14:14,300,914,HERMITAGE/BELLEVUE,37.59027,-77.463952
14,14:14,301,3409,Hermitage/Princeton,37.592759,-77.46492
14,14:14,302,3547,Westbrook/Hermitage,37.595547,-77.465979
14,14:14,303,3612,Westbrook and Crestwood,37.596339,-77.460739
14,14:14,304,3426,Westbrook/Stratford,37.596566,-77.457262
14,14:14,305,1248,BROOK/WESTBROOK,37.597092,-77.453373
14,14:14,306,1250,BROOK/AZALEA,37.600762,-77.454024
14,14:14,307,2737,BROOK/WALMART NHOOD MKT,37.603674,-77.454592
18,Route #18,308,587,HENRICO HUMAN SERVICES,37.628336,-77.509514
18,Route #18,309,588,HENRICO JUVENILE AND DOMESTIC RELATION COURTS,37.630317,-77.511603
18,Route #18,310,2499,PARHAM/HUNGARY SPRING,37.629764,-77.52042
18,Route #18,311,3683,Prince Henry at Administration Building,37.628948,-77.514299
18,Route #18,312,590,PARHAM/HEALTH SOUTH HOSPITAL,37.63049,-77.527106
18,Route #18,313,3684,Prince Henry at Henrico Government Center,37.627593,-77.5169
18,Route #18,314,591,PARHAM/SHRADER,37.63098,-77.529993
18,Route #18,315,592,Parham at Sun Trust Operations Center,37.631049,-77.53272
18,Route #18,316,590,PARHAM/HENRICO DOCTORS HOSPITAL,37.63049,-77.527106
18,Route #18,317,593,BROAD/CAROUSEL LANE,37.62817,-77.533772
18,Route #18,318,3685,Shrader/Carousel,37.629373,-77.529576
18,Route #18,319,594,BROAD/WESTLAND SHOPPING CENTER,37.625857,-77.531162
18,Route #18,320,3678,Shrader/Enterprise,37.626006,-77.527076
18,Route #18,321,595,BROAD/ENTERPRISE PARKWAY,37.624461,-77.529507
18,Route #18,322,3686,Shrader/Hungary Spring,37.624217,-77.524677
18,Route #18,323,596,BROAD/HUNGARY SPRING,37.621687,-77.52637
18,Route #18,324,3679,Shrader/Cardinal,37.623124,-77.522251
18,Route #18,325,597,BROAD/WISTAR,37.618815,-77.523982
18,Route #18,326,3680,Wistar/Wistar Village,37.622692,-77.512078
18,Route #18,327,598,BROAD/SUNNYBROOK,37.616693,-77.522866
18,Route #18,328,3675,Wistar/Staples Mill,37.62222,-77.503287
18,Route #18,329,639,BETHLEHEM/FOUNTAIN,37.613599,-77.519879
18,Route #18,330,3687,Staples Mill/Amtrak Richmond Station,37.617704,-77.496972
18,Route #18,331,644,STAPLES MILL/AMTRAK,37.617061,-77.498797
18,Route #18,332,640,BASIE/COUNT,37.615295,-77.515672
18,Route #18,333,641,BREMNER/BETH,37.616531,-77.508997
18,Route #18,334,646,STAPLES MILL/TALLEY,37.611063,-77.4964
18,Route #18,335,642,BREMNER/FERNWOOD,37.617437,-77.505483
18,Route #18,336,647,STAPLES MILL/TOWNHOUSE,37.606935,-77.495113
18,Route #18,337,643,BREMNER/BALMORAL,37.618173,-77.501355
18,Route #18,338,648,STAPLES MILL/HAMLET APT,37.604524,-77.49333
18,Route #18,339,3673,Staples Mill/Libbie Mill East,37.591527,-77.493335
18,Route #18,340,645,STAPLES MILL/CROCKETT,37.614933,-77.499293
18,Route #18,341,3671,Libbie Lake South/Libbie Lake East,37.589155,-77.495281
18,Route #18,342,631,GLENSIDE/CLOVERDALE (PARKING LOT),37.61458,-77.501708
18,Route #18,343,3697,Staples Mill/W Marshall,37.583403,-77.492294
18,Route #18,344,3423,Staples Mill/Radford,37.580514,-77.494488
18,Route #18,345,3422,Staples Mill/Augusta,37.578705,-77.496282
18,Route #18,346,3506,Willow Lawn/Grace,37.579924,-77.500466
18,Route #18,347,649,Libbie/Argus,37.594031,-77.500216
18,Route #18,348,586,WILLOW LAWN/SHELTER,37.582978,-77.498363
18,Route #18,349,184,Monument/Westlyn,37.577894,-77.500076
18,Route #18,350,650,LIBBIE/INDIGO,37.592601,-77.500945
18,Route #18,351,600,BROAD/EMERYWOOD PARKWAY,37.610372,-77.519543
18,Route #18,352,601,BROAD/ALTRIA,37.600989,-77.514974
18,Route #18,353,602,BROAD/HOME DEPOT,37.597982,-77.513622
18,Route #18,354,603,BROAD/MORNINGSIDE,37.595095,-77.510223
18,Route #18,355,604,BROAD/CRESTWOOD,37.592197,-77.506645
18,Route #18,356,605,BROAD/BREMO,37.590863,-77.505049
18,Route #18,357,606,BROAD/LAKE,37.588741,-77.502447
18,Route #18,358,3081,BROAD/WILLOW LAWN,37.584853,-77.49764
18,Route #18,359,581,BROAD/WILLOW LAWN SHOPPING CENTER,37.582732,-77.495017
18,Route #18,360,582,BROAD/STAPLES MILL,37.581587,-77.493587
18,Route #18,361,625,BROAD/BYRD,37.586773,-77.499545
18,Route #18,362,608,BROAD/LAKE,37.588588,-77.501763
18,Route #18,363,626,LIBBIE/INDIGO,37.592645,-77.500585
18,Route #18,364,3696,Maywill at Vital Records and Health Statistics,37.582015,-77.489616
18,Route #18,365,627,Libbie/Argus,37.594318,-77.499715
18,Route #18,366,3672,Libbie Lake South at Libbie Mill Library,37.589768,-77.49585
18,Route #18,367,628,STAPLES MILL RD/NORTHSIDE,37.604441,-77.492696
18,Route #18,368,629,STAPLES MILL RD/ASPEN,37.607594,-77.495057
18,Route #18,369,3674,Staples Mill/Libbie Mill East,37.591519,-77.492938
18,Route #18,370,630,STAPLES MILL/TALLEY,37.61156,-77.496058
18,Route #18,371,632,CROCKETT/STAPLES MILL,37.61512,-77.498443
18,Route #18,372,633,Staples Mill/Amtrak Station,37.616852,-77.498426
18,Route #18,373,634,BREMNER/BALMORAL,37.618292,-77.501136
18,Route #18,374,3676,Staples Mill/Wistar,37.622164,-77.502885
18,Route #18,375,635,BREMNER/FERNWOOD,37.617495,-77.506021
18,Route #18,376,3677,Staples Mill/Heisler,37.627905,-77.505524
18,Route #18,377,636,BREMNER/BETH,37.616685,-77.508763
18,Route #18,378,637,BASIE/COUNT,37.615383,-77.515714
18,Route #18,379,638,BETHLEHEM/FOUNTAIN,37.613736,-77.519771
18,Route #18,380,609,BROAD/BREMO,37.591321,-77.505156
18,Route #18,381,610,BROAD/CRESTWOOD,37.592888,-77.50705
18,Route #18,382,611,BROAD/6020 WEST BROAD,37.595105,-77.509759
18,Route #18,383,612,BROAD STREET/W CLUB,37.597617,-77.512738
18,Route #18,384,613,BROAD/BROOKFIELD,37.601538,-77.514667
18,Route #18,385,614,BROAD/GLENSIDE,37.609176,-77.518493
18,Route #18,386,615,BROAD/BETHLEHEM,37.614423,-77.521298
18,Route #18,387,617,BROAD/SUNNYBROOK,37.617405,-77.522857
18,Route #18,388,619,BROAD/CARDINAL,37.620944,-77.525133
18,Route #18,389,620,HUNGARY SPRING/BROAD,37.622433,-77.526163
18,Route #18,390,621,HUNGARY SPRING AT VERIZON,37.625477,-77.522937
18,Route #18,391,622,HUNGARY SPRING/STONEMAN,37.628018,-77.520228
18,Route #18,392,623,HENRICO GOVERNMENT COMPLEX CENTER,37.627503,-77.516928
18,Route #18,393,624,PRINCE HENRY/ADMINISTRATION BUILDING SHELTER,37.628977,-77.514202
19,Route #19,394,651,PEMBERTON/BROAD,37.639509,-77.562161
19,Route #19,395,3658,Aldi/Bon Secours Pkwy,37.662978,-77.644296
19,Route #19,396,652,STILLMAN PKY/MAYLAND DR,37.640132,-77.566067
19,Route #19,397,3660,Broad/Hayden,37.659086,-77.634544
19,Route #19,398,653,BROAD BETWEEN STILLMAN PKY AND PEMBERTON RD,37.641383,-77.562355
19,Route #19,399,3661,Broad/Gayton,37.658038,-77.632088
19,Route #19,400,654,BROAD/TANELORN,37.63977,-77.558532
19,Route #19,401,3662,Broad/Lauderdale,37.654354,-77.623906
19,Route #19,402,655,BROAD/SUNDANCE WAY,37.637873,-77.553748
19,Route #19,403,3663,Broad/Spring Oak,37.651788,-77.614805
19,Route #19,404,656,BROAD/TUCKERNUCK,37.636622,-77.550712
19,Route #19,405,3664,Broad/Pump,37.650872,-77.610165
19,Route #19,406,657,BROAD/HOMEVIEW,37.634523,-77.545387
19,Route #19,407,3665,Broad/Brownstone,37.649481,-77.603375
19,Route #19,408,658,BROAD/SKIPWITH,37.63237,-77.54003
19,Route #19,409,3666,Broad/Dominion,37.647093,-77.586127
19,Route #19,410,3667,Broad/Cox,37.646545,-77.582343
19,Route #19,411,593,BROAD/CAROUSEL LANE,37.62817,-77.533772
19,Route #19,412,3668,Broad/Gaelic,37.645971,-77.577801
19,Route #19,413,594,BROAD/WESTLAND SHOPPING CENTER,37.625857,-77.531162
19,Route #19,414,3669,Broad/Deep Rock,37.645156,-77.572028
19,Route #19,415,595,BROAD/ENTERPRISE PARKWAY,37.624461,-77.529507
19,Route #19,416,3670,Broad/Stillman,37.642885,-77.566263
19,Route #19,417,596,BROAD/HUNGARY SPRING,37.621687,-77.52637
19,Route #19,418,597,BROAD/WISTAR,37.618815,-77.523982
19,Route #19,419,598,BROAD/SUNNYBROOK,37.616693,-77.522866
19,Route #19,420,3378,Broad/Bethlehem,37.613026,-77.520843
19,Route #19,421,600,BROAD/EMERYWOOD PARKWAY,37.610372,-77.519543
19,Route #19,422,601,BROAD/ALTRIA,37.600989,-77.514974
19,Route #19,423,602,BROAD/HOME DEPOT,37.597982,-77.513622
19,Route #19,424,603,BROAD/MORNINGSIDE,37.595095,-77.510223
19,Route #19,425,604,BROAD/CRESTWOOD,37.592197,-77.506645
19,Route #19,426,605,BROAD/BREMO,37.590863,-77.505049
19,Route #19,427,606,BROAD/LAKE,37.588741,-77.502447
19,Route #19,428,3081,BROAD/WILLOW LAWN,37.584853,-77.49764
19,Route #19,429,581,BROAD/WILLOW LAWN SHOPPING CENTER,37.582732,-77.495017
19,Route #19,430,582,BROAD/STAPLES MILL,37.581587,-77.493587
19,Route #19,431,3423,Staples Mill/Radford,37.580514,-77.494488
19,Route #19,432,3422,Staples Mill/Augusta,37.578705,-77.496282
19,Route #19,433,184,Monument/Westlyn,37.577894,-77.500076
19,Route #19,434,586,WILLOW LAWN/SHELTER,37.582978,-77.498363
19,Route #19,435,3506,Willow Lawn/Grace,37.579924,-77.500466
19,Route #19,436,3465,Broad/50th,37.584825,-77.497087
19,Route #19,437,625,BROAD/BYRD,37.586773,-77.499545
19,Route #19,438,608,BROAD/LAKE,37.588588,-77.501763
19,Route #19,439,609,BROAD/BREMO,37.591321,-77.505156
19,Route #19,440,610,BROAD/CRESTWOOD,37.592888,-77.50705
19,Route #19,441,611,BROAD/6020 WEST BROAD,37.595105,-77.509759
19,Route #19,442,612,BROAD STREET/W CLUB,37.597617,-77.512738
19,Route #19,443,613,BROAD/BROOKFIELD,37.601538,-77.514667
19,Route #19,444,614,BROAD/GLENSIDE,37.609176,-77.518493
19,Route #19,445,3366,BROAD/DEEP RUN,37.612299,-77.520162
19,Route #19,446,615,BROAD/BETHLEHEM,37.614423,-77.521298
19,Route #19,447,617,BROAD/SUNNYBROOK,37.617405,-77.522857
19,Route #19,448,619,BROAD/CARDINAL,37.620944,-77.525133
19,Route #19,449,692,BROAD/ENTERPRISE PARKWAY,37.624753,-77.529333
19,Route #19,450,693,BROAD/FOUNTAIN SQUARE,37.626838,-77.531782
19,Route #19,451,694,BROAD/CAROUSEL LANE,37.628519,-77.533683
19,Route #19,452,695,BROAD/SKIPWITH,37.632422,-77.539522
19,Route #19,453,696,BROAD/HOMEVIEW,37.634437,-77.544505
19,Route #19,454,697,BROAD/TUCKERNUCK,37.636432,-77.549322
19,Route #19,455,698,BROAD/SUNDANCE WAY,37.638074,-77.553483
19,Route #19,456,3379,Broad/Springfield,37.640102,-77.558528
19,Route #19,457,3641,Broad/Springfield,37.641503,-77.562078
19,Route #19,458,3642,Broad/Stillman,37.642687,-77.564978
19,Route #19,459,3643,Broad/Deep Rock,37.645231,-77.571264
19,Route #19,460,3644,Broad/Gaelic,37.646232,-77.577135
19,Route #19,461,3645,Broad/Innsbrook,37.64652,-77.579399
19,Route #19,462,3646,Broad/Dominion,37.647628,-77.58796
19,Route #19,463,3647,Broad/Tom Leonard,37.649376,-77.600878
19,Route #19,464,3648,Broad/John Rolfe,37.650517,-77.606485
19,Route #19,465,3649,Broad/Pouncey Tract,37.651261,-77.610236
19,Route #19,466,3650,Broad/Spring Oak,37.651921,-77.614251
19,Route #19,467,3651,Broad/Lauderdale,37.653904,-77.621989
19,Route #19,468,3652,Broad/Short Pump Towne Center- West Entrance,37.655897,-77.626493
19,Route #19,469,3653,Broad/Towne Center West,37.657595,-77.630246
19,Route #19,470,3655,Broad/Cabela,37.660593,-77.638222
19,Route #19,471,3659,Bon Secours Pkwy/Saunders Tavern Trail,37.662629,-77.644797
19,Route #19,472,3654,Broad/Hayden,37.659973,-77.635684
19,Route #19,473,3657,Bon Secours Pkwy/Robert Atack Way,37.663725,-77.640336
19,Route #19,474,3656,Bon Secours Pkwy Lot/Robert Atack Way,37.662673,-77.643004
20,Route #20,475,3527,Prince Hall/E Broad Rock,37.502097,-77.466559
20,Route #20,476,3434,Broad Rock Blvd. at McGuire St.,37.501509,-77.468578
20,Route #20,477,1406,BELT BOULEVARD/MERRY OAKS,37.499658,-77.471048
20,Route #20,478,3555,Belt at Circle Shopping Center,37.503228,-77.474487
20,Route #20,479,1448,BELT BOULEVARD/WACHOVIA BANK,37.504205,-77.475785
20,Route #20,480,1450,BELT AT GRTC ADMINISTRATION BUILDING,37.505437,-77.479305
20,Route #20,481,3071,BELT BOULEVARD/185 BELT BOULEVARD,37.506097,-77.481197
20,Route #20,482,3072,BELT BOULEVARD/141 BELT BOULEVARD,37.506743,-77.483029
20,Route #20,483,3073,WESTOVER HILLS BOULEVARD/CRUTCHFIELD,37.511135,-77.487492
20,Route #20,484,1454,WESTOVER HILLS BOULEVARD/BRENTWOOD SOUTH APTS,37.513578,-77.489089
20,Route #20,485,2974,WESTOVER HILLS BOULEVARD/BASSETT,37.51505,-77.48877
20,Route #20,486,3236,Westover Hills/Reedy,37.516941,-77.488183
20,Route #20,487,2902,FOREST HILL/PRINCE ARTHUR,37.522757,-77.491338
20,Route #20,488,2903,FOREST HILL/DORCHESTER,37.524628,-77.494835
20,Route #20,489,1871,FOREST HILL/LEICESTER,37.526167,-77.497779
20,Route #20,490,2904,FOREST HILL/LANGDON,37.52832,-77.500875
20,Route #20,491,1722,FOREST HILL/PINEWAY,37.530817,-77.505007
20,Route #20,492,1723,FOREST HILL/FAIRLEE,37.53268,-77.506922
20,Route #20,493,3491,Freeman/French,37.548242,-77.48851
20,Route #20,494,3492,Freeman/Maplewood,37.550982,-77.487558
20,Route #20,495,970,MCCLOY/MAPLEWOOD,37.550195,-77.484447
20,Route #20,496,971,MCCLOY/IDLEWOOD,37.55124,-77.483398
20,Route #20,497,3533,Sheppard/Grayland,37.550821,-77.479694
20,Route #20,498,332,CARY/SHEPPARD,37.552382,-77.478512
20,Route #20,499,333,CARY/BOULEVARD,37.551618,-77.476405
20,Route #20,500,950,ROBINSON/CARY,37.551125,-77.473623
20,Route #20,501,951,ROBINSON/MAIN,37.552078,-77.473052
20,Route #20,502,952,ROBINSON/GROVE,37.553926,-77.472038
20,Route #20,503,953,ROBINSON/HANOVER,37.555051,-77.47141
20,Route #20,504,955,ROBINSON/KENSINGTON,37.55765,-77.469825
20,Route #20,505,958,ROBINSON/BROAD,37.560413,-77.46725
20,Route #20,506,3110,BROAD/BOULEVARD,37.56292,-77.47063
20,Route #20,507,3518,Marshall/Sheppard,37.564111,-77.470831
20,Route #20,508,905,BOULEVARD/CLAY,37.564603,-77.468924
20,Route #20,509,907,BOULEVARD/LEIGH,37.566472,-77.467948
20,Route #20,510,908,BOULEVARD/THE DIAMOND,37.572233,-77.46477
20,Route #20,511,3497,Hermitage/Sherwood,37.571302,-77.460964
20,Route #20,512,3536,Sherwood/Hardy,37.570098,-77.457056
20,Route #20,513,3534,Sherwood at driveway,37.570054,-77.450914
20,Route #20,514,764,BROOK/BROOKLAND PARK BOULEVARD,37.57207,-77.44913
20,Route #20,515,3598,Brookland Park Boulevard/Seminary,37.572186,-77.447242
20,Route #20,516,3589,Brookland Park Boulevard/Chamberlayne,37.572031,-77.444663
20,Route #20,517,3594,Brookland Park Boulevard/Montrose,37.571827,-77.439932
20,Route #20,518,2981,BROOKLAND PARK BOULEVARD/HANES,37.571542,-77.435242
20,Route #20,519,3597,Brookland Park Boulevard/North,37.571408,-77.432422
20,Route #20,520,3592,Brookland Park Boulevard/Lamb,37.571352,-77.430549
20,Route #20,521,3469,Brookland Park/Richmond Henrico Turnpike,37.571152,-77.427417
20,Route #20,522,3588,Brookland Park Blvd. at Alpine,37.570435,-77.423268
20,Route #20,523,3600,Brookland Park Boulevard/Woodcliff,37.570061,-77.420213
20,Route #20,524,3447,3rd/Dill,37.569408,-77.417007
20,Route #20,525,3601,Brookland Park Boulevard/Woodcliff,37.570252,-77.420638
20,Route #20,526,3596,Brookland Park Boulevard/Napoleon,37.570716,-77.42388
20,Route #20,527,3468,Brookland Park/Richmond Henrico Turnpike,37.571276,-77.427239
20,Route #20,528,3593,Brookland Park Blvd./Lamb,37.571443,-77.430238
20,Route #20,529,797,BROOKLAND PARK BOULEVARD/NORTH,37.571582,-77.433172
20,Route #20,530,3591,Brookland Park/Hanes,37.571712,-77.435417
20,Route #20,531,3595,Brookland Park Boulevard/Montrose,37.57189,-77.439645
20,Route #20,532,3590,Brookland Park Boulevard/Chamberlayne,37.572261,-77.444926
20,Route #20,533,3599,Brookland Park Boulevard/Seminary,37.572417,-77.447053
20,Route #20,534,804,BROOK/BROOKLAND PARK BOULEVARD,37.571832,-77.4494
20,Route #20,535,805,BROOK/SHERWOOD,37.570242,-77.449297
20,Route #20,536,3537,Sherwood at Pfizer entrance,37.570188,-77.451015
20,Route #20,537,3535,Sherwood at first entrance to PET Dairy,37.570231,-77.456434
20,Route #20,538,3498,Hermitage/Sherwood,37.570402,-77.460637
20,Route #20,539,901,BOULEVARD/GREYHOUND BUS STATION,37.57143,-77.465477
20,Route #20,540,902,BOULEVARD/MOORE,37.566682,-77.468052
20,Route #20,541,3475,Clay at Altamont  before apartment entrance,37.565494,-77.470436
20,Route #20,542,52,BROAD/SHEPPARD,37.56307,-77.471335
20,Route #20,543,53,BROAD/BOULEVARD,37.562053,-77.46957
20,Route #20,544,1010,ROBINSON/BROAD,37.560062,-77.46771
20,Route #20,545,1013,ROBINSON/KENSINGTON,37.557237,-77.470333
20,Route #20,546,539,ROBINSON/HANOVER,37.554955,-77.47162
20,Route #20,547,1015,ROBINSON/GROVE,37.553755,-77.472225
20,Route #20,548,422,MAIN/ROBINSON,37.552209,-77.473115
20,Route #20,549,423,MAIN/BOULEVARD,37.552683,-77.475383
20,Route #20,550,425,ELLWOOD/SHEPPARD,37.553585,-77.478065
20,Route #20,551,3532,Sheppard/Grayland,37.55105,-77.479761
20,Route #20,552,3502,Idlewood at McCloy,37.551356,-77.483234
20,Route #20,553,3699,Belmont/Ellwood,37.553816,-77.479787
20,Route #20,554,3517,Maplewood/McCloy,37.550056,-77.484848
20,Route #20,555,1724,FOREST HILL/WILLOW OAKS,37.530899,-77.505614
20,Route #20,556,1725,FOREST HILL/BLILEY,37.529557,-77.503043
20,Route #20,557,2898,FOREST HILL/LANGDON,37.528205,-77.500933
20,Route #20,558,1878,FOREST HILL/LEICESTER,37.526417,-77.4983
20,Route #20,559,2901,FOREST HILL/DORCHESTER,37.524307,-77.494485
20,Route #20,560,1879,FOREST HILL/JAHNKE,37.522428,-77.491068
20,Route #20,561,1911,Forest Hill at Dialysis Center,37.521388,-77.489203
20,Route #20,562,3548,Westover Hills at Reedy,37.517334,-77.488422
20,Route #20,563,3433,Westover Hills and Chateau de Ville,37.513755,-77.489391
20,Route #20,564,3429,WESTOVER HILLS/CRUTCHFIELD,37.511572,-77.488207
20,Route #20,565,1501,BELT BOULEVARD/BRANDON,37.507288,-77.485258
20,Route #20,566,2929,BELT BOULEVARD/BERKELEY,37.505961,-77.481283
20,Route #20,567,2732,BELT BOULEVARD/LORDLEY LN,37.50525,-77.479138
20,Route #20,568,3386,Belt at Southside Plaza,37.503839,-77.475478
20,Route #20,569,1409,BELT BOULEVARD/STOCKTON,37.500485,-77.472097
20,Route #20,570,1562,BROAD ROCK/BELT BOULEVARD,37.499607,-77.46965
20,Route #20,571,3474,Chapel Dr at McGuire Park Cir,37.500684,-77.46644
23,Route #23,572,3105,BROAD/11TH,37.539237,-77.43153
23,Route #23,573,3104,14TH/FRANKLIN,37.5364,-77.43127
23,Route #23,574,309,MAIN/13TH,37.53626,-77.432866
23,Route #23,575,310,MAIN/11TH,37.537213,-77.434363
23,Route #23,576,311,MAIN/10TH,37.538202,-77.436136
23,Route #23,577,312,MAIN/8TH,37.538738,-77.437021
23,Route #23,578,313,7TH/FRANKLIN,37.540019,-77.437346
23,Route #23,579,296,7TH/MARSHALL,37.542527,-77.434865
23,Route #23,580,2619,7TH/CLAY,37.543415,-77.434088
23,Route #23,581,927,JACKSON/6TH,37.546162,-77.43284
23,Route #23,582,926,4TH/JACKSON,37.547557,-77.434395
23,Route #23,583,628,STAPLES MILL RD/NORTHSIDE,37.604441,-77.492696
23,Route #23,584,629,STAPLES MILL RD/ASPEN,37.607594,-77.495057
23,Route #23,585,630,STAPLES MILL/TALLEY,37.61156,-77.496058
23,Route #23,586,631,GLENSIDE/CLOVERDALE (PARKING LOT),37.61458,-77.501708
23,Route #23,587,920,FORDSON/PARHAM (PARKING LOT),37.619793,-77.556633
26,Route #26,588,920,FORDSON/PARHAM (PARKING LOT),37.619793,-77.556633
26,Route #26,589,921,JACKSON/4TH,37.547223,-77.434992
26,Route #26,590,2589,Leigh/8th,37.54412,-77.432296
26,Route #26,591,922,8TH/CLAY,37.542883,-77.433374
26,Route #26,592,95,BROAD/10TH,37.540049,-77.43282
26,Route #26,593,3105,BROAD/11TH,37.539237,-77.43153
26,Route #26,594,3104,14TH/FRANKLIN,37.5364,-77.43127
26,Route #26,595,309,MAIN/13TH,37.53626,-77.432866
26,Route #26,596,310,MAIN/11TH,37.537213,-77.434363
26,Route #26,597,311,MAIN/10TH,37.538202,-77.436136
26,Route #26,598,312,MAIN/8TH,37.538738,-77.437021
26,Route #26,599,313,7TH/FRANKLIN,37.540019,-77.437346
26,Route #26,600,296,7TH/MARSHALL,37.542527,-77.434865
26,Route #26,601,2619,7TH/CLAY,37.543415,-77.434088
26,Route #26,602,927,JACKSON/6TH,37.546162,-77.43284
26,Route #26,603,926,4TH/JACKSON,37.547557,-77.434395
27,Route #27,604,631,GLENSIDE/CLOVERDALE (PARKING LOT),37.61458,-77.501708
27,Route #27,605,646,STAPLES MILL/TALLEY,37.611063,-77.4964
27,Route #27,606,647,STAPLES MILL/TOWNHOUSE,37.606935,-77.495113
27,Route #27,607,648,STAPLES MILL/HAMLET APT,37.604524,-77.49333
27,Route #27,608,921,JACKSON/4TH,37.547223,-77.434992
27,Route #27,609,2589,Leigh/8th,37.54412,-77.432296
27,Route #27,610,922,8TH/CLAY,37.542883,-77.433374
27,Route #27,611,95,BROAD/10TH,37.540049,-77.43282
27,Route #27,612,3105,BROAD/11TH,37.539237,-77.43153
27,Route #27,613,3104,14TH/FRANKLIN,37.5364,-77.43127
27,Route #27,614,309,MAIN/13TH,37.53626,-77.432866
27,Route #27,615,310,MAIN/11TH,37.537213,-77.434363
27,Route #27,616,311,MAIN/10TH,37.538202,-77.436136
27,Route #27,617,312,MAIN/8TH,37.538738,-77.437021
27,Route #27,618,313,7TH/FRANKLIN,37.540019,-77.437346
27,Route #27,619,2504,7TH/GRACE,37.540937,-77.436398
27,Route #27,620,296,7TH/MARSHALL,37.542527,-77.434865
27,Route #27,621,2619,7TH/CLAY,37.543415,-77.434088
27,Route #27,622,927,JACKSON/6TH,37.546162,-77.43284
27,Route #27,623,926,4TH/JACKSON,37.547557,-77.434395
27,Route #27,624,628,STAPLES MILL RD/NORTHSIDE,37.604441,-77.492696
27,Route #27,625,629,STAPLES MILL RD/ASPEN,37.607594,-77.495057
27,Route #27,626,630,STAPLES MILL/TALLEY,37.61156,-77.496058
28,Route #28,627,1149,9TH/CARY,37.537702,-77.436692
28,Route #28,628,3105,BROAD/11TH,37.539237,-77.43153
28,Route #28,629,826,9TH/MAIN,37.538421,-77.436012
28,Route #28,630,3104,14TH/FRANKLIN,37.5364,-77.43127
28,Route #28,631,95,BROAD/10TH,37.540049,-77.43282
28,Route #28,632,309,MAIN/13TH,37.53626,-77.432866
28,Route #28,633,310,MAIN/11TH,37.537213,-77.434363
28,Route #28,634,311,MAIN/10TH,37.538202,-77.436136
28,Route #28,635,312,MAIN/8TH,37.538738,-77.437021
28,Route #28,636,313,7TH/FRANKLIN,37.540019,-77.437346
28,Route #28,637,296,7TH/MARSHALL,37.542527,-77.434865
28,Route #28,638,2619,7TH/CLAY,37.543415,-77.434088
28,Route #28,639,1763,LABURNUM/GAY,37.529359,-77.358728
28,Route #28,640,2592,LABURNUM/BEST BUY STATION,37.527617,-77.356687
28,Route #28,641,2530,LABURNUM/SHERATON HOTEL,37.525036,-77.354123
28,Route #28,642,2475,WHITE OAK VILLAGE/SAMS CLUB,37.527792,-77.352157
28,Route #28,643,2476,WHITE OAK VILLAGE/OFFICE MAX,37.529778,-77.354478
28,Route #28,644,297,MARSHALL/7TH,37.542469,-77.434554
28,Route #28,645,298,8TH/MARSHALL,37.541891,-77.43432
28,Route #28,646,3057,BROAD/9TH,37.541063,-77.434492
28,Route #28,647,2504,7TH/GRACE,37.540937,-77.436398
29,Route #29,648,676,GASKINS/MAYLAND (PARKING LOT),37.638783,-77.573585
29,Route #29,649,921,JACKSON/4TH,37.547223,-77.434992
29,Route #29,650,2589,Leigh/8th,37.54412,-77.432296
29,Route #29,651,922,8TH/CLAY,37.542883,-77.433374
29,Route #29,652,95,BROAD/10TH,37.540049,-77.43282
29,Route #29,653,3105,BROAD/11TH,37.539237,-77.43153
29,Route #29,654,3104,14TH/FRANKLIN,37.5364,-77.43127
29,Route #29,655,309,MAIN/13TH,37.53626,-77.432866
29,Route #29,656,310,MAIN/11TH,37.537213,-77.434363
29,Route #29,657,311,MAIN/10TH,37.538202,-77.436136
29,Route #29,658,312,MAIN/8TH,37.538738,-77.437021
29,Route #29,659,313,7TH/FRANKLIN,37.540019,-77.437346
29,Route #29,660,296,7TH/MARSHALL,37.542527,-77.434865
29,Route #29,661,2619,7TH/CLAY,37.543415,-77.434088
29,Route #29,662,927,JACKSON/6TH,37.546162,-77.43284
29,Route #29,663,926,4TH/JACKSON,37.547557,-77.434395
50,50:50:00,664,822,MARKEL/BYRD,37.584283,-77.499476
50,50:50:00,665,586,WILLOW LAWN/SHELTER,37.582978,-77.498363
50,50:50:00,666,823,BYRD/OLD RICHMOND,37.584543,-77.500908
50,50:50:00,667,581,BROAD/WILLOW LAWN SHOPPING CENTER,37.582732,-77.495017
50,50:50:00,668,824,BYRD/FITZHUGH,37.583716,-77.501721
50,50:50:00,669,582,BROAD/STAPLES MILL,37.581587,-77.493587
50,50:50:00,670,659,BROAD/CHANTILLY,37.580186,-77.491893
50,50:50:00,671,661,BROAD/WESTMORELAND,37.577932,-77.489168
50,50:50:00,672,662,BROAD/COMMONWEALTH,37.576938,-77.487952
50,50:50:00,673,664,BROAD/MALVERN,37.573043,-77.483223
50,50:50:00,674,665,BROAD/LAFAYETTE,37.572075,-77.482123
50,50:50:00,675,666,BROAD/HAMILTON,37.570429,-77.480178
50,50:50:00,676,668,BROAD/ROSENEATH,37.56787,-77.47716
50,50:50:00,677,669,BROAD/TILDEN,37.566618,-77.475658
50,50:50:00,678,671,BROAD/BELMONT,37.564675,-77.473337
50,50:50:00,679,52,BROAD/SHEPPARD,37.56307,-77.471335
50,50:50:00,680,53,BROAD/BOULEVARD,37.562053,-77.46957
50,50:50:00,681,54,BROAD/ROBINSON,37.560515,-77.467057
50,50:50:00,682,3525,DMV Drive/Broad,37.56004,-77.464627
50,50:50:00,683,77,BROAD/ALLISON,37.557808,-77.462608
50,50:50:00,684,3488,DMV Drive/Leigh,37.561153,-77.463758
50,50:50:00,685,3700,Hermitage/Clay,37.559124,-77.460044
50,50:50:00,686,3488,Davis/Broad,37.559874,-77.466352
50,50:50:00,687,145,BROAD/ROBINSON,37.560809,-77.467093
50,50:50:00,688,3110,BROAD/BOULEVARD,37.56292,-77.47063
50,50:50:00,689,678,BROAD/SUMMIT,37.565255,-77.473615
50,50:50:00,690,679,BROAD/MACTAVISH,37.566842,-77.475492
50,50:50:00,691,680,BROAD/ROSENEATH,37.56797,-77.476827
50,50:50:00,692,682,BROAD/HAMILTON,37.570597,-77.479942
50,50:50:00,693,683,BROAD/KENT,37.57149,-77.480998
50,50:50:00,694,684,BROAD/LAFAYETTE,37.572392,-77.482063
50,50:50:00,695,685,BROAD/WESTWOOD,37.573465,-77.483318
50,50:50:00,696,687,BROAD/COMMONWEALTH,37.576858,-77.487443
50,50:50:00,697,688,BROAD/WESTMORELAND,37.578423,-77.489352
50,50:50:00,698,690,BROAD/CHANTILLY,37.580547,-77.491893
50,50:50:00,699,691,BROAD/STAPLES MILL,37.581968,-77.493618
50,50:50:00,700,2596,WILLOW LAWN/MARKEL,37.583688,-77.497703
56,Route #56,701,296,7TH/MARSHALL,37.542527,-77.434865
56,Route #56,702,297,MARSHALL/7TH,37.542469,-77.434554
56,Route #56,703,95,BROAD/10TH,37.540049,-77.43282
56,Route #56,704,298,8TH/MARSHALL,37.541891,-77.43432
56,Route #56,705,3105,BROAD/11TH,37.539237,-77.43153
56,Route #56,706,3057,BROAD/9TH,37.541063,-77.434492
56,Route #56,707,100,BROAD/18TH,37.535568,-77.425369
56,Route #56,708,101,BROAD/19TH,37.53498,-77.4244
56,Route #56,709,2570,21ST/BROAD,37.534535,-77.42168
56,Route #56,710,103,MARSHALL/22ND,37.534144,-77.420799
56,Route #56,711,104,MARSHALL/24TH,37.53285,-77.418597
56,Route #56,712,106,MARSHALL/27TH,37.53144,-77.41634
56,Route #56,713,107,MARSHALL/29TH,37.530307,-77.414488
56,Route #56,714,108,MARSHALL/31ST,37.529198,-77.412692
56,Route #56,715,109,MARSHALL/33RD,37.528102,-77.410903
56,Route #56,716,1282,GOVERNMENT/1334,37.522085,-77.40151
56,Route #56,717,3342,Government/Rawlings,37.517977,-77.39704
56,Route #56,718,1284,PARKER/WILLIAMSBURG,37.514703,-77.395278
56,Route #56,719,1285,DARBYTOWN/HENRICO ARMS,37.512168,-77.393148
56,Route #56,720,1286,DARBYTOWN/SHIRELYDALE,37.510682,-77.390725
56,Route #56,721,1287,DARBYTOWN/LOUSIA,37.506478,-77.384255
56,Route #56,722,3347,Fareva Parking Lot East,37.485283,-77.360865
56,Route #56,723,3346,Fareva Parking Lot West,37.486057,-77.363421
56,Route #56,724,1289,LABURNUM/SEVEN HILLS,37.493555,-77.352387
56,Route #56,725,1290,CHARLES CITY/LABURNUM,37.504932,-77.351258
56,Route #56,726,1291,CHARLES CITY/2463,37.507128,-77.356098
56,Route #56,727,1292,GLEN ALDEN/SARELLEN,37.510292,-77.35683
56,Route #56,728,1293,SARELLEN/ACROSS FROM 4305,37.511456,-77.358988
56,Route #56,729,1294,KLOCHNER/ACROSS FROM PCI OF VA INC,37.513917,-77.361978
56,Route #56,730,1295,EUBANK/ENTRANCE TO CAROLINA,37.514695,-77.360453
56,Route #56,731,1297,EUBANK/GLEN ALDEN,37.513058,-77.356649
56,Route #56,732,1298,EUBANK/LABURNUM,37.511512,-77.351258
56,Route #56,733,1299,EUBANK/RALEIGH,37.511623,-77.346483
56,Route #56,734,1300,Eubank/Lewis,37.511608,-77.341591
56,Route #56,735,3577,Lewis at 5361,37.51447,-77.340551
56,Route #56,736,3580,Lewis/Huntsman,37.516842,-77.34056
56,Route #56,737,1859,WILLIAMSBURG/LEA LANE,37.517818,-77.343645
56,Route #56,738,1860,WILLIAMSBURG/ALLENSHAW,37.517305,-77.349082
56,Route #56,739,3586,Williamsburg/Kemp,37.517811,-77.386096
56,Route #56,740,3584,Williamsburg/Charles City,37.518239,-77.377409
56,Route #56,741,3703,Williamsburg/Creedmore,37.51555,-77.392312
56,Route #56,742,3582,Williamsburg/Cambrai,37.518367,-77.370447
56,Route #56,743,1861,LABURNUM/FINLEY,37.520667,-77.351278
56,Route #56,744,2475,WHITE OAK VILLAGE/SAMS CLUB,37.527792,-77.352157
56,Route #56,745,2476,WHITE OAK VILLAGE/OFFICE MAX,37.529778,-77.354478
56,Route #56,746,2592,LABURNUM/BEST BUY STATION,37.527617,-77.356687
56,Route #56,747,2530,LABURNUM/SHERATON HOTEL,37.525036,-77.354123
56,Route #56,748,2960,LABURNUM/LABURNUM SQUARE,37.52033,-77.351425
56,Route #56,749,1767,WILLIAMSBURG/ROBINS,37.517063,-77.348708
56,Route #56,750,1768,WILLIAMSBURG/OAKLEYS LA,37.517663,-77.343208
56,Route #56,751,3579,Lewis/Huntsman,37.516807,-77.340731
56,Route #56,752,3578,Lewis at 5300,37.514705,-77.340731
56,Route #56,753,1306,EUBANK/LEWIS,37.51173,-77.341977
56,Route #56,754,1307,EUBANK/RALEIGH,37.511647,-77.347142
56,Route #56,755,1308,EUBANK/LABURNUM,37.511612,-77.351473
56,Route #56,756,1310,EUBANK/4312,37.513078,-77.356273
56,Route #56,757,1311,EUBANK/KLOCKNER,37.514575,-77.359865
56,Route #56,758,1312,KLOCHNER/PCI OF VA INC,37.513857,-77.362233
56,Route #56,759,1313,SARELLEN/GLEN ALDEN,37.511225,-77.358828
56,Route #56,760,1314,GLEN ALDEN/SARELLEN,37.510197,-77.357028
56,Route #56,761,1315,CHARLES CITY/2464,37.506982,-77.356161
56,Route #56,762,1316,CHARLES CITY/LABURNUM,37.504443,-77.35075
56,Route #56,763,1317,LABURNUM/SEVEN HILLS,37.492757,-77.353253
56,Route #56,764,1319,DARBYTOWN/BUCKNER,37.506422,-77.383967
56,Route #56,765,1320,DARBYTOWN/SHIRELYDALE,37.510566,-77.390289
56,Route #56,766,1321,Darbytown/Geffert,37.512199,-77.392839
56,Route #56,767,1323,PARKER/WILLIAMSBURG,37.514377,-77.395183
56,Route #56,768,1324,PARKER/WILLIAMSBURG,37.515005,-77.395223
56,Route #56,769,2236,WILLIAMSBURG RD/FINLAY,37.517738,-77.351721
56,Route #56,770,2237,WILLIAMSBURG RD/ASPEN SHADES PKWAY,37.518085,-77.356997
56,Route #56,771,2238,WILLIAMSBURG RD/CLAYTON,37.518461,-77.36217
56,Route #56,772,3581,Williamsburg/Cambrai,37.518495,-77.370676
56,Route #56,773,3583,Williamsburg/Charles City,37.518474,-77.378325
56,Route #56,774,3585,Williamsburg/Kemp,37.517861,-77.386356
56,Route #56,775,3343,Government/Rawlings,37.51796,-77.39691
56,Route #56,776,3704,Williamsburg/Creedmore,37.515797,-77.39215
56,Route #56,777,1325,GOVERNMENT/1334,37.522109,-77.401405
56,Route #56,778,152,MARSHALL/33RD,37.528376,-77.411059
56,Route #56,779,153,MARSHALL/31ST,37.52914,-77.412301
56,Route #56,780,154,MARSHALL/29TH,37.530203,-77.414138
56,Route #56,781,155,MARSHALL/27TH,37.531377,-77.416053
56,Route #56,782,156,MARSHALL/25TH,37.532732,-77.418255
56,Route #56,783,157,MARSHALL/23RD,37.53436,-77.420871
56,Route #56,784,119,21ST/MARSHALL,37.534149,-77.422238
56,Route #56,785,120,BROAD/19TH,37.534962,-77.424151
56,Route #56,786,122,BROAD/17TH,37.536062,-77.425916
56,Route #56,787,3055,BROAD/12TH,37.539599,-77.431641
56,Route #56,788,125,BROAD/9TH,37.54079,-77.433617
56,Route #56,789,3244,BROAD/7TH,37.541538,-77.434838
64,Route #64,790,1651,DURYEA/UNITED METHODIST CHURCH (OLD GUN),37.535127,-77.591212
64,Route #64,791,2971,OLDFIELD/WESTGATE,37.53991,-77.5768
64,Route #64,792,1657,EVANSWAY LANE/DOMINO,37.541302,-77.569515
64,Route #64,793,3351,Evansway Lane/Ragsdale,37.54043,-77.57291
64,Route #64,794,1658,FOREST HILL/STONEY POINT MED CENTER DRIVEWAY,37.540578,-77.566758
64,Route #64,795,2897,FOREST HILL/LAKE VILLAGE,37.538882,-77.567545
64,Route #64,796,1660,FOREST HILL/STONY LAKE,37.537452,-77.567083
64,Route #64,797,1661,FOREST HILL/DRIVEWAY TO STONY POINT SHOPPING CT,37.536295,-77.565828
64,Route #64,798,2480,CHOCTAW/FOREST HILL,37.533697,-77.559613
64,Route #64,799,1663,FOREST HILL/ANWELL DR,37.53221,-77.555187
64,Route #64,800,2899,FOREST HILL/HUGUENOT SCHOOL,37.531788,-77.545742
64,Route #64,801,2900,FOREST HILL/THOMPSON SCHOOL,37.533704,-77.540154
64,Route #64,802,1667,FOREST HILL/KENMORE,37.53483,-77.537868
64,Route #64,803,1707,FOREST HILL/CHIPPENHAM VILLAGE,37.536248,-77.535287
64,Route #64,804,1668,FOREST HILL/SHEILA LANE,37.536915,-77.532417
64,Route #64,805,1669,Forest Hill/Cherokee,37.537681,-77.525309
64,Route #64,806,1671,FOREST HILL/HATHAWAY,37.538059,-77.520402
64,Route #64,807,1672,FOREST HILL/MELBORNE,37.537555,-77.518398
64,Route #64,808,1673,FOREST HILL/WOODBERRY LA,37.536538,-77.515258
64,Route #64,809,1674,FOREST HILL/RETIG,37.53583,-77.512453
64,Route #64,810,1149,9TH/CARY,37.537702,-77.436692
64,Route #64,811,826,9TH/MAIN,37.538421,-77.436012
64,Route #64,812,95,BROAD/10TH,37.540049,-77.43282
64,Route #64,813,3105,BROAD/11TH,37.539237,-77.43153
64,Route #64,814,3104,14TH/FRANKLIN,37.5364,-77.43127
64,Route #64,815,309,MAIN/13TH,37.53626,-77.432866
64,Route #64,816,310,MAIN/11TH,37.537213,-77.434363
64,Route #64,817,311,MAIN/10TH,37.538202,-77.436136
64,Route #64,818,1166,8TH/CARY,37.538068,-77.43802
64,Route #64,819,1873,FOREST HILL/RETIG,37.535847,-77.512128
64,Route #64,820,1676,FOREST HILL/WINDSOR VIEW,37.536828,-77.515927
64,Route #64,821,2905,Forest Hill/Melbourne,37.537818,-77.51853
64,Route #64,822,1678,FOREST HILL/HATHAWAY,37.538175,-77.520377
64,Route #64,823,1679,FOREST HILL/CHEROKEE,37.537928,-77.523873
64,Route #64,824,2906,Forest Hill/Joe Brooks,37.53777,-77.526444
64,Route #64,825,1681,FOREST HILL/SHEILA,37.537318,-77.531062
64,Route #64,826,1682,FOREST HILL/GRANTWOOD,37.536045,-77.536088
64,Route #64,827,2907,FOREST HILL/KENMORE,37.535029,-77.537963
64,Route #64,828,1684,FOREST HILL/THOMPSON SCHOOL,37.533817,-77.540237
64,Route #64,829,2908,FOREST HILL/LANSDALE,37.53197,-77.546237
64,Route #64,830,3640,Forest Hill/Anwell,37.53229,-77.555284
64,Route #64,831,2478,CHOCTAW/FOREST HILL,37.533642,-77.559843
64,Route #64,832,2909,FOREST HILL/MCRAE,37.535107,-77.563015
64,Route #64,833,3338,Huguenot/Westgate,37.533348,-77.574119
64,Route #64,834,3337,Huguenot/Scarborough,37.53245,-77.581476
64,Route #64,835,1692,HUGUENOT/SHOREHAM,37.533133,-77.585887
64,Route #64,836,1693,HUGUENOT ROAD/MONTEITH,37.533593,-77.589797
75,75:75,837,2749,RICHMOND WAY AT UR STUDENT COMMONS,37.576327,-77.538902
75,75:75,838,2980,GATEWAY ROAD/CAMPUS DRIVE,37.579334,-77.53449
75,75:75,839,453,CAMPUS/BOSTWICK LANE,37.579097,-77.532722
75,75:75,840,455,CAMPUS/ROSELAWN,37.578339,-77.528091
75,75:75,841,456,CAMPUS/THREE CHOPT,37.577047,-77.526482
75,75:75,842,459,GROVE/THREE CHOPT,37.572733,-77.523047
75,75:75,843,3408,Grove/Maple,37.572823,-77.52005
75,75:75,844,3508,Libbie/York,37.575131,-77.517677
75,75:75,845,3505,Libbie/Guthrie,37.577174,-77.516183
75,75:75,846,719,PATTERSON/LIBBIE,37.579657,-77.514592
75,75:75,847,720,PATTERSON/MAPLE,37.58082,-77.51628
75,75:75,848,3516,Maple/Bremo,37.583179,-77.515372
75,75:75,849,55,BREMO/MONUMENT,37.584563,-77.512946
75,75:75,850,56,MONUMENT/LIBBIE,37.583768,-77.510498
75,75:75,851,187,LIBBIE/MONUMENT,37.58398,-77.509768
75,75:75,852,189,LIBBIE/FITZHUGH,37.586612,-77.507124
75,75:75,853,191,LIBBIE/CONVALESCENT CENTER,37.588752,-77.505087
75,75:75,854,606,BROAD/LAKE,37.588741,-77.502447
75,75:75,855,3081,BROAD/WILLOW LAWN,37.584853,-77.49764
75,75:75,856,2596,WILLOW LAWN/MARKEL,37.583688,-77.497703
75,75:75,857,822,MARKEL/BYRD,37.584283,-77.499476
75,75:75,858,823,BYRD/OLD RICHMOND,37.584543,-77.500908
75,75:75,859,824,BYRD/FITZHUGH,37.583716,-77.501721
75,75:75,860,586,WILLOW LAWN/SHELTER,37.582978,-77.498363
75,75:75,861,3465,Broad/50th,37.584825,-77.497087
75,75:75,862,625,BROAD/BYRD,37.586773,-77.499545
75,75:75,863,608,BROAD/LAKE,37.588588,-77.501763
75,75:75,864,192,LIBBIE/FITZHUGH,37.587222,-77.506803
75,75:75,865,194,LIBBIE/MORNINGSIDE,37.584262,-77.509657
75,75:75,866,3538,St. Mary's Hospital at Monument,37.583954,-77.513989
75,75:75,867,28,PATTERSON/LIBBIE,37.580074,-77.515527
75,75:75,868,3509,Libbie/Guthrie,37.577291,-77.516437
75,75:75,869,3507,Libbie/York,37.575178,-77.517859
75,75:75,870,3407,Grove/Maple,37.573029,-77.519682
75,75:75,871,571,GROVE/THREE CHOPT,37.572877,-77.52358
75,75:75,872,574,TOWANA/THREE CHOPT,37.577412,-77.526712
75,75:75,873,575,CAMPUS/ROSELAWN,37.578222,-77.527602
75,75:75,874,577,CAMPUS/BOSTWICK LANE,37.579238,-77.532322
75,75:75,875,2751,RICHMOND WAY/BRUNET HALL,37.579875,-77.536978
76,76:76,876,822,MARKEL/BYRD,37.584283,-77.499476
76,76:76,877,586,WILLOW LAWN/SHELTER,37.582978,-77.498363
76,76:76,878,823,BYRD/OLD RICHMOND,37.584543,-77.500908
76,76:76,879,581,BROAD/WILLOW LAWN SHOPPING CENTER,37.582732,-77.495017
76,76:76,880,824,BYRD/FITZHUGH,37.583716,-77.501721
76,76:76,881,582,BROAD/STAPLES MILL,37.581587,-77.493587
76,76:76,882,195,WILLOW LAWN/WYTHE,37.578205,-77.502615
76,76:76,883,3423,Staples Mill/Radford,37.580514,-77.494488
76,76:76,884,3549,Willow Lawn/Baywood,37.577208,-77.50527
76,76:76,885,3422,Staples Mill/Augusta,37.578705,-77.496282
76,76:76,886,3550,Willow Lawn/Dunbar,37.576146,-77.508005
76,76:76,887,184,Monument/Westlyn,37.577894,-77.500076
76,76:76,888,33,PATTERSON/GREENWAY LANE,37.575015,-77.506947
76,76:76,889,34,PATTERSON/HARLAN CIRCLE,37.574033,-77.505047
76,76:76,890,35,PATTERSON/LEXINGTON,37.573275,-77.503568
76,76:76,891,37,PATTERSON/BUNTING,37.571545,-77.500215
76,76:76,892,38,PATTERSON/WESTMORELAND,37.569635,-77.496463
76,76:76,893,40,PATTERSON/SAUER,37.567485,-77.49246
76,76:76,894,41,PATTERSON/MALVERN,37.56605,-77.489518
76,76:76,895,43,PATTERSON/HAMILTON,37.564198,-77.485973
76,76:76,896,44,PATTERSON/THOMPSON,37.56288,-77.483303
76,76:76,897,45,PATTERSON/ROSENEATH,37.561742,-77.481182
76,76:76,898,47,PATTERSON/CLEVELAND,37.560897,-77.477502
76,76:76,899,48,PATTERSON/BELMONT,37.560658,-77.475395
76,76:76,900,49,SHEPPARD/PARK,37.560725,-77.474045
76,76:76,901,50,SHEPPARD/MONUMENT,37.561488,-77.473322
76,76:76,902,51,SHEPPARD/GRACE,37.562708,-77.472137
76,76:76,903,52,BROAD/SHEPPARD,37.56307,-77.471335
76,76:76,904,53,BROAD/BOULEVARD,37.562053,-77.46957
76,76:76,905,54,BROAD/ROBINSON,37.560515,-77.467057
76,76:76,906,3488,Davis/Broad,37.559874,-77.466352
76,76:76,907,3488,DMV Drive/Leigh,37.561153,-77.463758
76,76:76,908,3525,DMV Drive/Broad,37.56004,-77.464627
76,76:76,909,77,BROAD/ALLISON,37.557808,-77.462608
76,76:76,910,3700,Hermitage/Clay,37.559124,-77.460044
76,76:76,911,145,BROAD/ROBINSON,37.560809,-77.467093
76,76:76,912,3110,BROAD/BOULEVARD,37.56292,-77.47063
76,76:76,913,3112,SHEPPARD/BROAD,37.562713,-77.472283
76,76:76,914,168,SHEPPARD/MONUMENT,37.561922,-77.473054
76,76:76,915,699,PARK/SHEPPARD,37.560977,-77.47418
76,76:76,916,700,PARK/CLEVELAND,37.561858,-77.476905
76,76:76,917,703,PATTERSON/NANSEMOND,37.562449,-77.482283
76,76:76,918,705,PATTERSON/HAMILTON,37.564433,-77.486085
76,76:76,919,707,PATTERSON/MALVERN,37.56601,-77.489168
76,76:76,920,708,PATTERSON/SAUER,37.56748,-77.49203
76,76:76,921,710,PATTERSON/WESTMORELAND,37.569635,-77.496185
76,76:76,922,711,PATTERSON/CHANTILLY,37.571415,-77.49965
76,76:76,923,712,PATTERSON/SPOKANE,37.572909,-77.502578
76,76:76,924,713,PATTERSON/HARLAN CIRCLE,37.574035,-77.504751
76,76:76,925,714,PATTERSON/GREENWAY LANE,37.574973,-77.506502
76,76:76,926,715,PATTERSON/WILLOW LAWN,37.575603,-77.507948
76,76:76,927,3551,Willow Lawn/Franklin,37.577098,-77.504679
76,76:76,928,3552,Willow Lawn/Wythe,37.578062,-77.502224
76,76:76,929,3506,Willow Lawn/Grace,37.579924,-77.500466
77,77:77,930,822,MARKEL/BYRD,37.584283,-77.499476
77,77:77,931,586,WILLOW LAWN/SHELTER,37.582978,-77.498363
77,77:77,932,823,BYRD/OLD RICHMOND,37.584543,-77.500908
77,77:77,933,3465,Broad/50th,37.584825,-77.497087
77,77:77,934,824,BYRD/FITZHUGH,37.583716,-77.501721
77,77:77,935,625,BROAD/BYRD,37.586773,-77.499545
77,77:77,936,608,BROAD/LAKE,37.588588,-77.501763
77,77:77,937,192,LIBBIE/FITZHUGH,37.587222,-77.506803
77,77:77,938,194,LIBBIE/MORNINGSIDE,37.584262,-77.509657
77,77:77,939,3538,St. Mary's Hospital at Monument,37.583954,-77.513989
77,77:77,940,28,PATTERSON/LIBBIE,37.580074,-77.515527
77,77:77,941,721,PATTERSON/ALGOMA,37.581945,-77.517993
77,77:77,942,3509,Libbie/Guthrie,37.577291,-77.516437
77,77:77,943,723,PATTERSON/PEPPER,37.583985,-77.520973
77,77:77,944,3507,Libbie/York,37.575178,-77.517859
77,77:77,945,725,PATTERSON/CHANTECLER,37.586093,-77.524183
77,77:77,946,464,GROVE/SENECA,37.572627,-77.5148
77,77:77,947,726,PATTERSON/HONAKER,37.587715,-77.526467
77,77:77,948,466,GROVE/TUCKAHOE,37.571372,-77.512295
77,77:77,949,468,GROVE/ROSLYN,37.570195,-77.509714
77,77:77,950,727,PATTERSON/RIPLEY,37.589352,-77.528928
77,77:77,951,470,GROVE/LEXINGTON,37.568777,-77.506732
77,77:77,952,728,PATTERSON/REGISTER PKWY,37.590845,-77.531098
77,77:77,953,473,GROVE/WEST LOCKE LANE,37.56688,-77.502758
77,77:77,954,459,GROVE/THREE CHOPT,37.572733,-77.523047
77,77:77,955,476,GROVE/WESTMORELAND,37.565502,-77.499882
77,77:77,956,3408,Grove/Maple,37.572823,-77.52005
77,77:77,957,477,GROVE/COMMONWEALTH,37.564692,-77.498172
77,77:77,958,480,GROVE/ANTRIM,37.563274,-77.49521
77,77:77,959,481,GROVE/MALVERN,37.562053,-77.492665
77,77:77,960,483,GROVE/HAMILTON,37.560737,-77.48982
77,77:77,961,484,GROVE/THOMPSON,37.559485,-77.487197
77,77:77,962,485,GROVE/NANSEMOND,37.55846,-77.484343
77,77:77,963,487,GROVE/AUBURN,37.557213,-77.480823
77,77:77,964,488,GROVE/BELMONT,37.556347,-77.478337
77,77:77,965,490,GROVE/BOULEVARD,37.554973,-77.474672
77,77:77,966,953,ROBINSON/HANOVER,37.555051,-77.47141
77,77:77,967,955,ROBINSON/KENSINGTON,37.55765,-77.469825
77,77:77,968,958,ROBINSON/BROAD,37.560413,-77.46725
77,77:77,969,3525,DMV Drive/Broad,37.56004,-77.464627
77,77:77,970,3488,DMV Drive/Leigh,37.561153,-77.463758
77,77:77,971,3488,Davis/Broad,37.559874,-77.466352
77,77:77,972,77,BROAD/ALLISON,37.557808,-77.462608
77,77:77,973,3700,Hermitage/Clay,37.559124,-77.460044
77,77:77,974,1010,ROBINSON/BROAD,37.560062,-77.46771
77,77:77,975,1013,ROBINSON/KENSINGTON,37.557237,-77.470333
77,77:77,976,539,ROBINSON/HANOVER,37.554955,-77.47162
77,77:77,977,540,GROVE/ROBINSON,37.554257,-77.472335
77,77:77,978,541,GROVE/BOULEVARD,37.555115,-77.474783
77,77:77,979,543,GROVE/BELMONT,37.556287,-77.478042
77,77:77,980,544,GROVE/TILDEN,37.5573,-77.481
77,77:77,981,545,GROVE/ROSENEATH,37.557928,-77.482643
77,77:77,982,546,GROVE/NANSEMOND,37.558615,-77.484543
77,77:77,983,547,GROVE/THOMPSON,37.559462,-77.486895
77,77:77,984,548,GROVE/HAMILTON,37.560716,-77.489392
77,77:77,985,550,GROVE/MALVERN,37.562068,-77.492268
77,77:77,986,552,GROVE/SAUER,37.563423,-77.495105
77,77:77,987,554,GROVE/COMMONWEALTH,37.564732,-77.497823
77,77:77,988,555,GROVE/WESTMORELAND,37.565447,-77.499325
77,77:77,989,557,GROVE/BUNTING,37.567227,-77.503068
77,77:77,990,559,GROVE/LEXINGTON,37.568788,-77.50639
77,77:77,991,561,GROVE/ROSLYN ROAD,37.570203,-77.509277
77,77:77,992,563,GROVE/TUCKAHOE,37.571447,-77.51193
77,77:77,993,566,GROVE/SENECA,37.572905,-77.51502
77,77:77,994,568,GROVE/LIBBIE,37.573075,-77.518287
77,77:77,995,3508,Libbie/York,37.575131,-77.517677
77,77:77,996,3505,Libbie/Guthrie,37.577174,-77.516183
77,77:77,997,3407,Grove/Maple,37.573029,-77.519682
77,77:77,998,719,PATTERSON/LIBBIE,37.579657,-77.514592
77,77:77,999,571,GROVE/THREE CHOPT,37.572877,-77.52358
77,77:77,"1,000",720,PATTERSON/MAPLE,37.58082,-77.51628
77,77:77,"1,001",3516,Maple/Bremo,37.583179,-77.515372
77,77:77,"1,002",20,PATTERSON/THREE CHOPT,37.590503,-77.530938
77,77:77,"1,003",55,BREMO/MONUMENT,37.584563,-77.512946
77,77:77,"1,004",21,PATTERSON/RIPLEY,37.589392,-77.529287
77,77:77,"1,005",22,PATTERSON/HONAKER,37.587675,-77.526758
77,77:77,"1,006",56,MONUMENT/LIBBIE,37.583768,-77.510498
77,77:77,"1,007",23,PATTERSON/CHANTECLER,37.585945,-77.524229
77,77:77,"1,008",187,LIBBIE/MONUMENT,37.58398,-77.509768
77,77:77,"1,009",25,PATTERSON/PEPPER,37.584043,-77.52137
77,77:77,"1,010",189,LIBBIE/FITZHUGH,37.586612,-77.507124
77,77:77,"1,011",26,PATTERSON/ALGOMA,37.581922,-77.518208
77,77:77,"1,012",191,LIBBIE/CONVALESCENT CENTER,37.588752,-77.505087
77,77:77,"1,013",606,BROAD/LAKE,37.588741,-77.502447
77,77:77,"1,014",3081,BROAD/WILLOW LAWN,37.584853,-77.49764
77,77:77,"1,015",2596,WILLOW LAWN/MARKEL,37.583688,-77.497703
77,77:77,"1,016",581,BROAD/WILLOW LAWN SHOPPING CENTER,37.582732,-77.495017
77,77:77,"1,017",582,BROAD/STAPLES MILL,37.581587,-77.493587
77,77:77,"1,018",3423,Staples Mill/Radford,37.580514,-77.494488
77,77:77,"1,019",3422,Staples Mill/Augusta,37.578705,-77.496282
77,77:77,"1,020",3506,Willow Lawn/Grace,37.579924,-77.500466
77,77:77,"1,021",184,Monument/Westlyn,37.577894,-77.500076
78,78:78,"1,022",3609,Cary/Nansemond,37.555349,-77.486931
78,78:78,"1,023",3604,Cary/Freeman,37.554544,-77.484724
78,78:78,"1,024",3608,Cary/McCloy,37.55365,-77.482218
78,78:78,"1,025",331,CARY/BELMONT,37.552827,-77.480022
78,78:78,"1,026",332,CARY/SHEPPARD,37.552382,-77.478512
78,78:78,"1,027",333,CARY/BOULEVARD,37.551618,-77.476405
78,78:78,"1,028",3473,Cary/Robinson,37.550647,-77.473743
78,78:78,"1,029",3472,Cary/Addison,37.549457,-77.470417
78,78:78,"1,030",3611,Cary/Rowland,37.548527,-77.467836
78,78:78,"1,031",3519,Meadow/Idlewood,37.54604,-77.467854
78,78:78,"1,032",1058,MEADOW/GILBERT,37.5427,-77.469525
78,78:78,"1,033",1059,MEADOW/WALKER,37.541734,-77.470054
78,78:78,"1,034",1060,MEADOW/POWHATAN,37.540097,-77.470954
78,78:78,"1,035",1061,MEADOW/AMELIA,37.539523,-77.471289
78,78:78,"1,036",1062,MEADOW/COLORADO,37.537534,-77.472394
78,78:78,"1,037",1064,MEADOW/NEVADA,37.535307,-77.47294
78,78:78,"1,038",1065,MEADOW/PENNSYLVANIA,37.534165,-77.473242
78,78:78,"1,039",1066,PENNSYLVANIA/GEORGIA,37.534034,-77.472375
78,78:78,"1,040",1067,PENNSYLVANIA/GREENVILLE,37.534018,-77.471303
78,78:78,"1,041",1068,PENNSYLVANIA/CARTER,37.533999,-77.470288
78,78:78,"1,042",3470,Carter/Dakota,37.535583,-77.469537
78,78:78,"1,043",3481,Colorado/Maymont Village Apts,37.537354,-77.468179
78,78:78,"1,044",3528,Randolph/Winder,37.538166,-77.462397
78,78:78,"1,045",3511,Lombardy/Winder,37.53954,-77.464737
78,78:78,"1,046",3367,Lombardy/Lakeview,37.541417,-77.463744
78,78:78,"1,047",202,Idlewood/Temple,37.543856,-77.462489
78,78:78,"1,048",204,IDLEWOOD/RANDOLPH,37.542971,-77.459959
78,78:78,"1,049",205,HARRISON/GRAYLAND,37.542417,-77.456907
78,78:78,"1,050",206,HARRISON/CARY,37.54439,-77.455862
78,78:78,"1,051",207,HARRISON/MAIN,37.545713,-77.455185
78,78:78,"1,052",208,HARRISON/GROVE,37.54839,-77.455232
78,78:78,"1,053",209,HARRISON/FRANKLIN,37.549649,-77.454307
78,78:78,"1,054",210,HARRISON/GRACE,37.550787,-77.453152
78,78:78,"1,055",3082,BROAD/SHAFER,37.550628,-77.45048
78,78:78,"1,056",84,BROAD/LAUREL,37.549331,-77.44841
78,78:78,"1,057",85,BROAD/HENRY,37.548248,-77.446443
78,78:78,"1,058",3108,BROAD/ADAMS,37.545928,-77.442727
78,78:78,"1,059",91,BROAD/4TH,37.543527,-77.438515
78,78:78,"1,060",3057,BROAD/9TH,37.541063,-77.434492
78,78:78,"1,061",3428,9th/Marshall (Mid-block between Marshall +Broad,37.541163,-77.433362
78,78:78,"1,062",2617,TRANSFER PLAZA BAY F,37.542653,-77.432123
78,78:78,"1,063",3438,2nd/Broad,37.544792,-77.439822
78,78:78,"1,064",1753,MARSHALL/3RD,37.544935,-77.438568
78,78:78,"1,065",674,10TH/MARSHALL,37.540721,-77.432685
78,78:78,"1,066",3244,BROAD/7TH,37.541538,-77.434838
78,78:78,"1,067",128,BROAD/4TH,37.543761,-77.438541
78,78:78,"1,068",3084,Broad/Adams,37.546367,-77.443014
78,78:78,"1,069",134,BROAD/HENRY,37.548473,-77.446407
78,78:78,"1,070",135,BROAD/GILMER,37.549384,-77.447967
78,78:78,"1,071",3400,Broad/Hancock,37.551051,-77.450768
78,78:78,"1,072",245,HARRISON/BROAD,37.551607,-77.452675
78,78:78,"1,073",246,HARRISON/FRANKLIN,37.550037,-77.454105
78,78:78,"1,074",247,HARRISON/PARK,37.549003,-77.45505
78,78:78,"1,075",249,HARRISON/MAIN,37.545558,-77.455377
78,78:78,"1,076",251,HARRISON/PARKWOOD,37.543722,-77.456405
78,78:78,"1,077",252,HARRISON/IDLEWOOD,37.542118,-77.457283
78,78:78,"1,078",253,IDLEWOOD/RANDOLPH,37.542979,-77.459785
78,78:78,"1,079",257,LOMBARDY/BETWEEN LAKEVIEW AND CLAIBORNE,37.541147,-77.464055
78,78:78,"1,080",3510,Lombardy/Winder,37.538281,-77.465796
78,78:78,"1,081",3707,Dummy Stop - Randolph/Colorado,37.537434,-77.462976
78,78:78,"1,082",263,COLORADO/COLORADO MANOR,37.537452,-77.468052
78,78:78,"1,083",3471,Carter/Dakota,37.535864,-77.46979
78,78:78,"1,084",3368,Pennsylvania/Georgia,37.534191,-77.472007
78,78:78,"1,085",934,MEADOW/NEVADA,37.535147,-77.472852
78,78:78,"1,086",936,MEADOW/COLORADO,37.537735,-77.472127
78,78:78,"1,087",937,MEADOW/AMELIA,37.539288,-77.471238
78,78:78,"1,088",938,MEADOW/WINDER,37.540612,-77.470549
78,78:78,"1,089",939,MEADOW/BLAIR,37.54185,-77.469825
78,78:78,"1,090",940,MEADOW/CLAIRBORNE,37.542605,-77.46938
78,78:78,"1,091",941,MEADOW/LAKEVIEW,37.543345,-77.468855
78,78:78,"1,092",943,MEADOW/ROSEWOOD,37.545237,-77.467925
78,78:78,"1,093",2585,MEADOW/GRAYLAND,37.546492,-77.46725
78,78:78,"1,094",3513,Main/Rowland,37.549663,-77.466966
78,78:78,"1,095",3418,Main/Stafford,37.55107,-77.470644
78,78:78,"1,096",423,MAIN/BOULEVARD,37.552683,-77.475383
78,78:78,"1,097",425,ELLWOOD/SHEPPARD,37.553585,-77.478065
78,78:78,"1,098",426,ELLWOOD/BELMONT,37.554205,-77.479667
78,78:78,"1,099",428,ELLWOOD/DOOLEY,37.555382,-77.483002
78,78:78,"1,100",2746,ELLWOOD/NANSEMOND,37.55676,-77.486975
79,79:79,"1,101",3566,Quioccasin/Gayton,37.607098,-77.59302
79,79:79,"1,102",3570,Quioccasin/Farmington,37.607224,-77.585062
79,79:79,"1,103",3571,Quioccasin/Shane,37.607252,-77.579413
79,79:79,"1,104",3572,Quioccasin/Blue Jay,37.605771,-77.572944
79,79:79,"1,105",3575,Quioccasin/Starling,37.604645,-77.569782
79,79:79,"1,106",3576,Eastridge/Three Chopt,37.602055,-77.561738
79,79:79,"1,107",9,THREE CHOPT/DRIVE TO D FREEMAN HIGH SCHOOL,37.602592,-77.558135
79,79:79,"1,108",10,THREE CHOPT/CAMDEN,37.601768,-77.554793
79,79:79,"1,109",11,THREE CHOPT/BEVERLY,37.600867,-77.55126
79,79:79,"1,110",12,SANTA ROSA/THREE CHOPT,37.600843,-77.548153
79,79:79,"1,111",13,SANTA ROSA/FRANKLIN FARMS,37.602115,-77.548128
79,79:79,"1,112",14,ROLLING HILLS/DISCOVERY,37.602838,-77.546095
79,79:79,"1,113",15,FOREST/HENRICO DOCTORS HOSPITAL,37.605132,-77.539888
79,79:79,"1,114",16,SKIPWITH/SCHOOL BUILDING,37.603553,-77.537822
79,79:79,"1,115",17,SKIPWITH/PARKLINE,37.599107,-77.537681
79,79:79,"1,116",18,THREE CHOPT/SKIPWITH,37.59712,-77.537297
79,79:79,"1,117",19,THREE CHOPT/PARK,37.593047,-77.531742
79,79:79,"1,118",20,PATTERSON/THREE CHOPT,37.590503,-77.530938
79,79:79,"1,119",21,PATTERSON/RIPLEY,37.589392,-77.529287
79,79:79,"1,120",22,PATTERSON/HONAKER,37.587675,-77.526758
79,79:79,"1,121",23,PATTERSON/CHANTECLER,37.585945,-77.524229
79,79:79,"1,122",25,PATTERSON/PEPPER,37.584043,-77.52137
79,79:79,"1,123",26,PATTERSON/ALGOMA,37.581922,-77.518208
79,79:79,"1,124",27,PATTERSON/MAPLE,37.580834,-77.51667
79,79:79,"1,125",28,PATTERSON/LIBBIE,37.580074,-77.515527
79,79:79,"1,126",29,PATTERSON/GRANITE,37.578523,-77.513217
79,79:79,"1,127",31,PATTERSON/MATOAKA,37.576462,-77.509783
79,79:79,"1,128",32,PATTERSON/WILLOW LAWN,37.575937,-77.508767
79,79:79,"1,129",3551,Willow Lawn/Franklin,37.577098,-77.504679
79,79:79,"1,130",3552,Willow Lawn/Wythe,37.578062,-77.502224
79,79:79,"1,131",822,MARKEL/BYRD,37.584283,-77.499476
79,79:79,"1,132",3506,Willow Lawn/Grace,37.579924,-77.500466
79,79:79,"1,133",586,WILLOW LAWN/SHELTER,37.582978,-77.498363
79,79:79,"1,134",823,BYRD/OLD RICHMOND,37.584543,-77.500908
79,79:79,"1,135",581,BROAD/WILLOW LAWN SHOPPING CENTER,37.582732,-77.495017
79,79:79,"1,136",824,BYRD/FITZHUGH,37.583716,-77.501721
79,79:79,"1,137",582,BROAD/STAPLES MILL,37.581587,-77.493587
79,79:79,"1,138",195,WILLOW LAWN/WYTHE,37.578205,-77.502615
79,79:79,"1,139",3423,Staples Mill/Radford,37.580514,-77.494488
79,79:79,"1,140",3549,Willow Lawn/Baywood,37.577208,-77.50527
79,79:79,"1,141",3422,Staples Mill/Augusta,37.578705,-77.496282
79,79:79,"1,142",3550,Willow Lawn/Dunbar,37.576146,-77.508005
79,79:79,"1,143",184,Monument/Westlyn,37.577894,-77.500076
79,79:79,"1,144",716,PATTERSON/MATOAKA,37.576637,-77.509878
79,79:79,"1,145",718,PATTERSON/GRANITE,37.578423,-77.512867
79,79:79,"1,146",719,PATTERSON/LIBBIE,37.579657,-77.514592
79,79:79,"1,147",720,PATTERSON/MAPLE,37.58082,-77.51628
79,79:79,"1,148",721,PATTERSON/ALGOMA,37.581945,-77.517993
79,79:79,"1,149",723,PATTERSON/PEPPER,37.583985,-77.520973
79,79:79,"1,150",725,PATTERSON/CHANTECLER,37.586093,-77.524183
79,79:79,"1,151",726,PATTERSON/HONAKER,37.587715,-77.526467
79,79:79,"1,152",727,PATTERSON/RIPLEY,37.589352,-77.528928
79,79:79,"1,153",728,PATTERSON/REGISTER PKWY,37.590845,-77.531098
79,79:79,"1,154",2202,PATTERSON/TRIANGLE SHOPPING CTR,37.592477,-77.533689
79,79:79,"1,155",730,THREE CHOPT/SKIPWITH,37.597107,-77.536583
79,79:79,"1,156",731,SKIPWITH/PARKLINE,37.600253,-77.537581
79,79:79,"1,157",732,Skipwith/Forest,37.603679,-77.537685
79,79:79,"1,158",3048,FOREST/HENRICO DOCTORS HOSPITAL,37.605302,-77.539927
79,79:79,"1,159",733,ROLAND HILLS/1602,37.602971,-77.546154
79,79:79,"1,160",734,SANTA ROSA/FRANKLIN FARMS,37.602235,-77.548232
79,79:79,"1,161",735,THREE CHOPT/SANTA ROSA,37.6007,-77.548297
79,79:79,"1,162",736,THREE CHOPT/MICHAELS,37.601179,-77.551691
79,79:79,"1,163",737,THREE CHOPT/WESTBERRY,37.601788,-77.554407
79,79:79,"1,164",738,THREE CHOPT/RIDGE,37.603163,-77.559008
79,79:79,"1,165",739,Three Chopt Rd. at Ridge Elementary School,37.604726,-77.560013
79,79:79,"1,166",741,THREE CHOPT/FARGO,37.607368,-77.562496
79,79:79,"1,167",743,FARGO/PARHAM,37.607424,-77.564413
79,79:79,"1,168",744,STARLING/STARLING CT,37.606622,-77.568148
79,79:79,"1,169",3574,Starling/Quioccasin,37.605133,-77.568906
79,79:79,"1,170",3573,Quioccasin/Imperial,37.606147,-77.573406
79,79:79,"1,171",3567,Quioccasin/Pemberton,37.607386,-77.577747
79,79:79,"1,172",3568,Quioccasin/Regency Woods,37.607471,-77.585527
79,79:79,"1,173",3569,Gayton Crossing at Stoneridge,37.605672,-77.590943
82,Route #82,"1,174",2150,COMMONWEALTH 20,37.41816,-77.62877
82,Route #82,"1,175",1149,9TH/CARY,37.537702,-77.436692
82,Route #82,"1,176",826,9TH/MAIN,37.538421,-77.436012
82,Route #82,"1,177",95,BROAD/10TH,37.540049,-77.43282
82,Route #82,"1,178",3105,BROAD/11TH,37.539237,-77.43153
82,Route #82,"1,179",3104,14TH/FRANKLIN,37.5364,-77.43127
82,Route #82,"1,180",309,MAIN/13TH,37.53626,-77.432866
82,Route #82,"1,181",310,MAIN/11TH,37.537213,-77.434363
82,Route #82,"1,182",311,MAIN/10TH,37.538202,-77.436136
82,Route #82,"1,183",1166,8TH/CARY,37.538068,-77.43802
86,Route #86,"1,184",1423,BANTON/DUPONT,37.464345,-77.454597
86,Route #86,"1,185",1425,FLUVANNA/WALMSLEY BOULEVARD,37.463753,-77.457665
86,Route #86,"1,186",2524,WALMSLEY/ANGUS,37.464658,-77.46024
86,Route #86,"1,187",1426,WALMSLEY BOULEVARD/SHACKLEFORD,37.465315,-77.462212
86,Route #86,"1,188",1427,WALMSLEY BOULEVARD/VIAL,37.466613,-77.464802
86,Route #86,"1,189",1428,WALMSLEY BOULEVARD/SUSAN,37.468398,-77.467503
86,Route #86,"1,190",2878,WAMSLEY BOULEVARD/HOPKINS,37.469722,-77.47031
86,Route #86,"1,191",1430,WALMSLEY BOULEVARD/OLIVE,37.470873,-77.4748
86,Route #86,"1,192",1431,WALMSLEY BOULEVARD/WOODMERE,37.470762,-77.477883
86,Route #86,"1,193",1433,WALMSLEY BOULEVARD/SOUTHALL,37.470118,-77.481833
86,Route #86,"1,194",2879,BROAD ROCK/3309,37.47255,-77.482365
86,Route #86,"1,195",1435,BROAD ROCK/EPPERSON,37.473655,-77.481983
86,Route #86,"1,196",2880,BROAD ROCK/JERVIE,37.476198,-77.481197
86,Route #86,"1,197",2579,BROAD ROCK/FERGUSON,37.478638,-77.480473
86,Route #86,"1,198",2881,BROAD ROCK/WARWICK,37.481983,-77.479107
86,Route #86,"1,199",1442,BROAD ROCK/TERMINAL,37.485385,-77.47658
86,Route #86,"1,200",1444,BROAD ROCK/CRANFORD,37.487793,-77.474275
86,Route #86,"1,201",2882,BROAD ROCK/S KINSLEY,37.49071,-77.471835
86,Route #86,"1,202",1404,BROAD ROCK/HORNER LANE,37.493905,-77.47023
86,Route #86,"1,203",2958,MCGUIRE HOSPITAL SHELTER,37.497752,-77.469618
86,Route #86,"1,204",2959,MCGUIRE HOSPITAL EXIT/BROAD ROCK,37.494043,-77.469935
86,Route #86,"1,205",1406,BELT BOULEVARD/MERRY OAKS,37.499658,-77.471048
86,Route #86,"1,206",1598,HULL/PLAZA,37.500695,-77.47619
86,Route #86,"1,207",2883,PLAZA/BELT BOULEVARD,37.503387,-77.47588
86,Route #86,"1,208",1409,BELT BOULEVARD/STOCKTON,37.500485,-77.472097
86,Route #86,"1,209",1410,BROAD ROCK/BELT BOULEVARD,37.498205,-77.470627
86,Route #86,"1,210",1412,BROAD ROCK/HORNER LANE,37.493738,-77.470563
86,Route #86,"1,211",1413,Broad Rock/Kinsley,37.490842,-77.472058
86,Route #86,"1,212",1415,BROAD ROCK/CRANFORD,37.487782,-77.47476
86,Route #86,"1,213",1416,BROAD ROCK/TERMINAL,37.485583,-77.476827
86,Route #86,"1,214",1507,Broad Rock/Warwick,37.482878,-77.478884
86,Route #86,"1,215",1509,BROAD ROCK/ROCKCREER APTS,37.478702,-77.480737
86,Route #86,"1,216",2896,BROAD ROCK/SNEAD,37.474772,-77.481952
86,Route #86,"1,217",1512,BROAD ROCK/WALMSLEY,37.471755,-77.482827
86,Route #86,"1,218",2699,BROAD ROCK/SOUTHALL,37.470041,-77.481718
86,Route #86,"1,219",1514,WALMSLEY/WOODMERE,37.470643,-77.478027
86,Route #86,"1,220",1515,WALMSLEY/OLIVE,37.470825,-77.474998
86,Route #86,"1,221",1517,WALMSLEY/HOPKINS,37.468887,-77.468918
86,Route #86,"1,222",2787,WALMSLEY/OLD HOPKINS,37.468068,-77.467155
86,Route #86,"1,223",1518,WALMSLEY/ARNWOOD,37.466104,-77.463986
86,Route #86,"1,224",1519,WALMSLEY/SHACKELFORD RD.,37.465348,-77.46245
86,Route #86,"1,225",2523,WALMSLEY/ANGUS,37.46465,-77.460335
87,Route #87,"1,226",1598,HULL/PLAZA,37.500695,-77.47619
87,Route #87,"1,227",2883,PLAZA/BELT BOULEVARD,37.503387,-77.47588
87,Route #87,"1,228",1409,BELT BOULEVARD/STOCKTON,37.500485,-77.472097
87,Route #87,"1,229",2958,MCGUIRE HOSPITAL SHELTER,37.497752,-77.469618
87,Route #87,"1,230",2959,MCGUIRE HOSPITAL EXIT/BROAD ROCK,37.494043,-77.469935
87,Route #87,"1,231",1562,BROAD ROCK/BELT BOULEVARD,37.499607,-77.46965
87,Route #87,"1,232",1563,BROAD ROCK/MCGUIRE,37.501423,-77.468203
87,Route #87,"1,233",1564,BROAD ROCK/36TH,37.502845,-77.466177
87,Route #87,"1,234",1565,BROAD ROCK/34TH,37.504053,-77.46477
87,Route #87,"1,235",1566,BROAD ROCK/HOLLY SPRINGS,37.505448,-77.463522
87,Route #87,"1,236",2930,HOLLY SPRING/CAULDER,37.503378,-77.461138
87,Route #87,"1,237",2931,HOLLY SPRING/HOPKINS,37.500333,-77.458015
87,Route #87,"1,238",2932,HOPKINS/MCGUIRE,37.49669,-77.46078
87,Route #87,"1,239",2933,HOPKINS/VETERANS,37.494982,-77.462258
87,Route #87,"1,240",3478,Cofer/Gross,37.492288,-77.461339
87,Route #87,"1,241",3480,Cofer/Yale,37.492678,-77.457459
87,Route #87,"1,242",2024,JEFFERSON DAVIS HWY/WARWICK,37.492719,-77.445874
87,Route #87,"1,243",3565,Bellemeade/Jefferson Davis,37.491203,-77.444765
87,Route #87,"1,244",2025,JEFFERSON DAVIS HWY/BELLMEADE,37.491477,-77.445673
87,Route #87,"1,245",2083,LYNHAVEN/BELLMEADE,37.492077,-77.441738
87,Route #87,"1,246",2084,LYNHAVEN/WARWICK,37.493273,-77.441867
87,Route #87,"1,247",2085,LYNHAVEN/WRIGHT,37.494623,-77.442017
87,Route #87,"1,248",2086,ROYALL/KROUSE,37.495335,-77.44061
87,Route #87,"1,249",2087,ROYAL/THAXTON,37.495495,-77.43813
87,Route #87,"1,250",2088,GUNN/ROYALL,37.495892,-77.436413
87,Route #87,"1,251",2089,MINEFEE/GUNN,37.498157,-77.438298
87,Route #87,"1,252",2090,CHAMBERS/MINEFEE,37.500147,-77.437217
87,Route #87,"1,253",2091,CHAMBERS/BOWEN,37.500803,-77.4386
87,Route #87,"1,254",2807,HARWOOD/BOWEN,37.503792,-77.438647
87,Route #87,"1,255",2094,LONE/HARWOOD,37.504352,-77.435413
87,Route #87,"1,256",2095,LONE/BRUCE,37.50608,-77.43554
87,Route #87,"1,257",2916,BRUCE/18TH ST,37.506176,-77.437294
87,Route #87,"1,258",2917,18TH/JOPLIN,37.506968,-77.438699
87,Route #87,"1,259",2099,18TH/HALIFAX,37.508528,-77.44026
87,Route #87,"1,260",2101,18TH/FAIRFAX,37.510073,-77.441827
87,Route #87,"1,261",2102,18TH ST/DINWIDDIE,37.51162,-77.443343
87,Route #87,"1,262",2103,DINWIDDIE/17TH,37.512462,-77.442177
87,Route #87,"1,263",2918,16TH/DINWIDDIE,37.513185,-77.441873
87,Route #87,"1,264",2106,16TH/MAURY,37.515347,-77.444083
87,Route #87,"1,265",2107,MAURY/15TH,37.515982,-77.443208
87,Route #87,"1,266",2919,MAURY/12TH,37.517925,-77.440237
87,Route #87,"1,267",2110,COMMERCE/MAURY,37.5199,-77.43775
87,Route #87,"1,268",2920,COMMERCE/DECATUR,37.522002,-77.439808
87,Route #87,"1,269",3449,Bainbridge/13th,37.521345,-77.445674
87,Route #87,"1,270",2001,COWARDIN/BAINBRIDGE,37.519535,-77.449217
87,Route #87,"1,271",2002,COWARDIN/PERRY,37.521602,-77.450497
87,Route #87,"1,272",3530,Semmes/20th,37.522449,-77.453468
87,Route #87,"1,273",1923,20TH/STONEWALL,37.523993,-77.454533
87,Route #87,"1,274",3377,2nd/Brown's Island Way,37.536041,-77.44819
87,Route #87,"1,275",3437,2nd/Spring,37.537934,-77.446141
87,Route #87,"1,276",1928,2ND/CANAL,37.54048,-77.443892
87,Route #87,"1,277",3435,2nd/Franklin,37.542709,-77.441793
87,Route #87,"1,278",91,BROAD/4TH,37.543527,-77.438515
87,Route #87,"1,279",3428,9th/Marshall (Mid-block between Marshall +Broad,37.541163,-77.433362
87,Route #87,"1,280",2617,TRANSFER PLAZA BAY F,37.542653,-77.432123
87,Route #87,"1,281",3438,2nd/Broad,37.544792,-77.439822
87,Route #87,"1,282",1753,MARSHALL/3RD,37.544935,-77.438568
87,Route #87,"1,283",674,10TH/MARSHALL,37.540721,-77.432685
87,Route #87,"1,284",125,BROAD/9TH,37.54079,-77.433617
87,Route #87,"1,285",3244,BROAD/7TH,37.541538,-77.434838
87,Route #87,"1,286",3446,3rd/Franklin,37.542176,-77.441078
87,Route #87,"1,287",3445,3rd/Canal,37.539835,-77.44331
87,Route #87,"1,288",3436,2nd/Spring,37.538013,-77.446367
87,Route #87,"1,289",3376,2nd/Brown's Island Way,37.53682,-77.447592
87,Route #87,"1,290",1892,20TH/STONEWALL,37.523821,-77.454627
87,Route #87,"1,291",2587,COWARDIN/SEMMES,37.522673,-77.451555
87,Route #87,"1,292",2012,COWARDIN/WALL,37.520655,-77.450258
87,Route #87,"1,293",3453,Bainbridge/12th,37.52189,-77.444652
87,Route #87,"1,294",2116,COMMERCE/HULL,37.522518,-77.440762
87,Route #87,"1,295",2117,COMMERCE/STOCKTON,37.521252,-77.439473
87,Route #87,"1,296",2118,MAURY/9TH,37.519202,-77.438273
87,Route #87,"1,297",2120,MAURY/12TH,37.517663,-77.440667
87,Route #87,"1,298",2121,MAURY/15TH,37.516085,-77.443202
87,Route #87,"1,299",2122,16TH/MAURY,37.515085,-77.444028
87,Route #87,"1,300",2124,16TH/DINWIDDIE,37.512858,-77.441778
87,Route #87,"1,301",2125,DINWIDDIE/17TH,37.512402,-77.442335
87,Route #87,"1,302",2126,18TH/DINWIDDIE,37.511353,-77.443288
87,Route #87,"1,303",2127,18TH/FAIRFAX,37.510162,-77.442073
87,Route #87,"1,304",2922,18TH/HALIFAX,37.5086,-77.440452
87,Route #87,"1,305",2131,18TH/JOPLIN,37.507058,-77.438933
87,Route #87,"1,306",2133,LONE/BRUCE,37.505738,-77.43564
87,Route #87,"1,307",2923,LONE/HARWOOD,37.503998,-77.435778
87,Route #87,"1,308",2136,HARWOOD/21ST,37.503807,-77.438973
87,Route #87,"1,309",2137,CHAMBERS/BOWEN,37.500922,-77.439053
87,Route #87,"1,310",2924,CHAMBERS/MINEFEE,37.500057,-77.43709
87,Route #87,"1,311",2140,MINEFEE/MIMOSA,37.498237,-77.43833
87,Route #87,"1,312",2925,ROYALL/GUNN,37.495598,-77.43705
87,Route #87,"1,313",2142,ROYALL/THAXTON,37.495565,-77.43825
87,Route #87,"1,314",2143,ROYALL/KROUSE,37.495438,-77.440483
87,Route #87,"1,315",2145,LYNHAVEN/WRIGHT,37.494457,-77.442088
87,Route #87,"1,316",2146,LYNHAVEN/WARWICK,37.493492,-77.441985
87,Route #87,"1,317",2147,LYNHAVEN/AFTON,37.492117,-77.44185
87,Route #87,"1,318",3564,Bellemeade/Jefferson Davis,37.491504,-77.445339
87,Route #87,"1,319",3479,Cofer/Yale,37.492762,-77.457878
87,Route #87,"1,320",3477,Cofer/Gross,37.492422,-77.461348
87,Route #87,"1,321",3501,Hopkins/McGuire,37.49685,-77.460329
87,Route #87,"1,322",3500,Holly Spring/Caulder,37.503453,-77.461017
87,Route #87,"1,323",3466,Broad Rock/33rd,37.504999,-77.464005
87,Route #87,"1,324",3467,Broad Rock/36th,37.503,-77.466126
87,Route #87,"1,325",3434,Broad Rock Blvd. at McGuire St.,37.501509,-77.468578
87,Route #87,"1,326",1406,BELT BOULEVARD/MERRY OAKS,37.499658,-77.471048
88,Route #88,"1,327",2042,MAXXIM MEDICAL,37.451817,-77.42644
88,Route #88,"1,328",2045,COMMERCE/BELLS,37.466748,-77.427887
88,Route #88,"1,329",3456,Bells/Phillip Morris Gate F,37.469738,-77.434969
88,Route #88,"1,330",3221,"Commerce Road at Gate ""K""",37.473641,-77.429402
88,Route #88,"1,331",3457,Bells/Phillip Morris Gate H,37.472631,-77.437955
88,Route #88,"1,332",2416,COMMERCE/GATE K,37.475148,-77.430382
88,Route #88,"1,333",3455,Bells/Jeff Davis,37.473148,-77.443399
88,Route #88,"1,334",2047,RUFFIN/COMMERCE,37.479815,-77.4312
88,Route #88,"1,335",2048,RUFFIN/FRANK,37.479758,-77.433378
88,Route #88,"1,336",3458,Bells/Castlewood,37.472796,-77.447568
88,Route #88,"1,337",2049,RUFFIN/DAVEE,37.479695,-77.436017
88,Route #88,"1,338",3454,Bells/Belt,37.472466,-77.454584
88,Route #88,"1,339",2050,RUFFIN/RUFFIN APTS,37.479615,-77.439203
88,Route #88,"1,340",3459,Belt/Twyman,37.476436,-77.456955
88,Route #88,"1,341",2051,RUFFIN/LYNHAVEN,37.47956,-77.440547
88,Route #88,"1,342",3499,Belt at Hickory Hill Community Center,37.48008,-77.460784
88,Route #88,"1,343",2802,JEFFERSON DAVIS HWY/RUFFIN,37.478745,-77.444377
88,Route #88,"1,344",3248,E. Belt Blvd./Chalfont,37.490481,-77.468741
88,Route #88,"1,345",1404,BROAD ROCK/HORNER LANE,37.493905,-77.47023
88,Route #88,"1,346",2068,JEFFERSON DAVIS HWY/LAMBERT,37.476485,-77.444202
88,Route #88,"1,347",1406,BELT BOULEVARD/MERRY OAKS,37.499658,-77.471048
88,Route #88,"1,348",2069,JEFFERSON DAVIS HWY/ALEXANDER,37.475395,-77.444098
88,Route #88,"1,349",1598,HULL/PLAZA,37.500695,-77.47619
88,Route #88,"1,350",2883,PLAZA/BELT BOULEVARD,37.503387,-77.47588
88,Route #88,"1,351",1409,BELT BOULEVARD/STOCKTON,37.500485,-77.472097
88,Route #88,"1,352",1410,BROAD ROCK/BELT BOULEVARD,37.498205,-77.470627
88,Route #88,"1,353",1412,BROAD ROCK/HORNER LANE,37.493738,-77.470563
88,Route #88,"1,354",3557,E Belt/Chalfont,37.490329,-77.468919
88,Route #88,"1,355",3431,Belt Blvd. At Hickory Hills Rec. Ctr.,37.479931,-77.461261
88,Route #88,"1,356",3558,E Belt/Twyman,37.476921,-77.458009
88,Route #88,"1,357",3553,Bells/Belt,37.472248,-77.454148
88,Route #88,"1,358",3556,E Belt/Castlewood,37.472591,-77.4469
88,Route #88,"1,359",2797,JEFFERSON DAVIS HWY/BELLS,37.473882,-77.443678
88,Route #88,"1,360",2063,JEFFERSON DAVIS HWY/ALEXANDER,37.475188,-77.443805
88,Route #88,"1,361",2064,JEFFERSON DAVIS HWY/LAMBERT,37.476683,-77.443932
88,Route #88,"1,362",2065,JEFFERSON DAVIS HWY/RUFFIN,37.479127,-77.444187
88,Route #88,"1,363",2032,RUFFIN/JEFFERSON DAVIS HWY,37.479382,-77.443868
88,Route #88,"1,364",2033,RUFFIN/LYNHAVEN,37.479497,-77.441032
88,Route #88,"1,365",2034,RUFFIN/RUFFIN APTS,37.479568,-77.439068
88,Route #88,"1,366",2035,RUFFIN/DAVEE,37.47952,-77.436525
88,Route #88,"1,367",2036,RUFFIN/FRANK,37.479653,-77.433363
88,Route #88,"1,368",2037,RUFFIN/COMMERCE,37.479695,-77.43128
88,Route #88,"1,369",2038,COMMERCE/GATE K,37.475862,-77.430141
88,Route #88,"1,370",2040,COMMERCE/BELLS,37.466173,-77.428157
88,Route #88,"1,371",2041,COMMERCE/WAMSLEY BOULEVARD,37.464218,-77.427927
88,Route #88,"1,372",2500,COMMERCE/DUPONT,37.453965,-77.426488
91,Route #91,"1,373",586,WILLOW LAWN/SHELTER,37.582978,-77.498363
91,Route #91,"1,374",581,BROAD/WILLOW LAWN SHOPPING CENTER,37.582732,-77.495017
91,Route #91,"1,375",582,BROAD/STAPLES MILL,37.581587,-77.493587
91,Route #91,"1,376",659,BROAD/CHANTILLY,37.580186,-77.491893
91,Route #91,"1,377",661,BROAD/WESTMORELAND,37.577932,-77.489168
91,Route #91,"1,378",662,BROAD/COMMONWEALTH,37.576938,-77.487952
91,Route #91,"1,379",2206,WESTWOOD AVE/W BROAD ST,37.57371,-77.483081
91,Route #91,"1,380",2976,WESTWOOD AVE/TOMLYNN ST,37.575072,-77.480923
91,Route #91,"1,381",3241,Westwood/Loumour,37.57676,-77.476309
91,Route #91,"1,382",3046,SAUNDERS AVE/SEDDON WAY,37.580943,-77.471493
91,Route #91,"1,383",2210,SAUNDERS AVE/LABURNMUM AVE,37.582355,-77.47135
91,Route #91,"1,384",2211,W LABURNUM AVE/ROSEDALE AVE,37.583848,-77.469045
91,Route #91,"1,385",2212,W LABURNUM AVE/HERMITAGE RD,37.584068,-77.462024
91,Route #91,"1,386",2213,W LABURNUM AVE/CHATHAM RD,37.584162,-77.458842
91,Route #91,"1,387",2215,W LABURNUM AVE/BROOK RD,37.584334,-77.451507
91,Route #91,"1,388",2216,W LABURNUM AVE/CHAMBERLAYNE AVE,37.584468,-77.447525
91,Route #91,"1,389",2217,W LABURNUM AVE/NOBLE AVE,37.584587,-77.443415
91,Route #91,"1,390",2218,W LABURNUM AVE/MONTROSE,37.584644,-77.440589
91,Route #91,"1,391",1117,LABURNUM/PLYMOUTH,37.584741,-77.436092
91,Route #91,"1,392",1118,LABURNUM/ALMA,37.584838,-77.435047
91,Route #91,"1,393",2703,E LABURNUM AVE/DELMONT AVE,37.585432,-77.427204
91,Route #91,"1,394",2221,E LABURNUM AVE/MEADOWBRIDGE,37.585457,-77.422323
91,Route #91,"1,395",2299,E LABURNUM AVE/CAROLINA AVE,37.58514,-77.415155
91,Route #91,"1,396",2242,E LABURNUM AVE/VAWTER AVE,37.5836,-77.409635
91,Route #91,"1,397",2222,E LABURNUM AVE/LARRY ST,37.580494,-77.405614
91,Route #91,"1,398",2223,E LABURNUM AVE/AUSTIN AVE,37.57945,-77.402281
91,Route #91,"1,399",2224,E LABURNUM AVE/RONNIE AVE,37.57788,-77.397286
91,Route #91,"1,400",2225,E LABURNUM AVE/HARRIS,37.576965,-77.394928
91,Route #91,"1,401",2226,E LABURNUM AVE/BOLLING,37.57548,-77.391042
91,Route #91,"1,402",2227,E LABURNUM AVE/REYNOLDS RD,37.574586,-77.388776
91,Route #91,"1,403",2228,E LABURNUM AVE/MONTCLAIR AVE,37.573828,-77.386872
91,Route #91,"1,404",2229,E LABURNUM AVE/HARVIE RD,37.571976,-77.382757
91,Route #91,"1,405",2230,E LABURNUM AVE/HUNTER MILL DR,37.569456,-77.380595
91,Route #91,"1,406",2231,E LABURNUM AVE/WATTS LN,37.566073,-77.378438
91,Route #91,"1,407",2232,E Laburnum/Creighton,37.561095,-77.375699
91,Route #91,"1,408",2233,E LABURNUM AVE/WILKES LN,37.557547,-77.373425
91,Route #91,"1,409",2729,E Laburnum/Kingsridge,37.551455,-77.371556
91,Route #91,"1,410",3047,E LABURNUM/STEEPLE,37.545064,-77.370805
91,Route #91,"1,411",1760,LABURNUM/COLWYCK,37.542438,-77.369064
91,Route #91,"1,412",1761,LABURNUM/GLENSPRINGS,37.539843,-77.367312
91,Route #91,"1,413",1762,LABURNUM/THORNHURST,37.53701,-77.365486
91,Route #91,"1,414",1763,LABURNUM/GAY,37.529359,-77.358728
91,Route #91,"1,415",2592,LABURNUM/BEST BUY STATION,37.527617,-77.356687
91,Route #91,"1,416",2530,LABURNUM/SHERATON HOTEL,37.525036,-77.354123
91,Route #91,"1,417",2960,LABURNUM/LABURNUM SQUARE,37.52033,-77.351425
91,Route #91,"1,418",2236,WILLIAMSBURG RD/FINLAY,37.517738,-77.351721
91,Route #91,"1,419",2237,WILLIAMSBURG RD/ASPEN SHADES PKWAY,37.518085,-77.356997
91,Route #91,"1,420",2238,WILLIAMSBURG RD/CLAYTON,37.518461,-77.36217
91,Route #91,"1,421",2239,MILLERS LANE/BEDFORD,37.519948,-77.365858
91,Route #91,"1,422",2240,MILLERS LANE/MILLERS GLEN LANE,37.52246,-77.365382
91,Route #91,"1,423",2968,GAY AVE/DODDS CREEK,37.526805,-77.361212
91,Route #91,"1,424",2475,WHITE OAK VILLAGE/SAMS CLUB,37.527792,-77.352157
91,Route #91,"1,425",2476,WHITE OAK VILLAGE/OFFICE MAX,37.529778,-77.354478
91,Route #91,"1,426",2477,LABURNUM/THORNHURST,37.537889,-77.365702
91,Route #91,"1,427",1865,LABURNUM/GLENSPRINGS,37.54007,-77.367153
91,Route #91,"1,428",1866,LABURNUM/COLWYCK,37.541748,-77.368245
91,Route #91,"1,429",2243,E LABURNUM AVE/SEVEN GABLES (SEC A),37.546058,-77.37112
91,Route #91,"1,430",2244,LABURNUM AVE./KINGSRIDGE,37.551492,-77.371258
91,Route #91,"1,431",2245,E LABURNUM AVE/WILKES LN,37.557757,-77.373233
91,Route #91,"1,432",2246,E Laburnum/Creighton,37.562445,-77.375617
91,Route #91,"1,433",2247,E LABURNUM AVE/WATTS LN,37.565665,-77.377875
91,Route #91,"1,434",2248,E LABURNUM AVE/HUNTER MILL DR,37.569503,-77.380315
91,Route #91,"1,435",2249,E LABURNUM AVE/HARVIE RD,37.571981,-77.382341
91,Route #91,"1,436",2250,E LABURNUM AVE/MONTCLAIR AVE,37.574713,-77.388496
91,Route #91,"1,437",2251,E LABURNUM AVE/BOLLING,37.575651,-77.390848
91,Route #91,"1,438",2252,E LABURNUM AVE/HARRIS,37.577013,-77.394413
91,Route #91,"1,439",2253,E LABURNUM AVE/ADAMS RD,37.57811,-77.397298
91,Route #91,"1,440",2254,E LABURNUM AVE/AUSTIN AVE,37.579556,-77.401732
91,Route #91,"1,441",2255,E LABURNUM AVE/GENACRE AVE,37.580444,-77.40473
91,Route #91,"1,442",2257,E LABURNUM AVE/VAWTER AVE,37.583438,-77.409107
91,Route #91,"1,443",2258,E LABURNUM AVE/CAROLINA AVE,37.585338,-77.415282
91,Route #91,"1,444",2260,E Laburnum/Meadowbridge,37.585994,-77.423808
91,Route #91,"1,445",2261,E LABURNUM AVE/WADDY AVE,37.585714,-77.425884
91,Route #91,"1,446",2262,E LABURNUM AVE/DELMONT AVE,37.585542,-77.42958
91,Route #91,"1,447",1115,PILOTS LANE/LABURNUM,37.585188,-77.433819
91,Route #91,"1,448",2754,LABURNUM/ALMA,37.58496,-77.436657
91,Route #91,"1,449",2263,W LABURNUM AVE/MONTROSE,37.584849,-77.440471
91,Route #91,"1,450",2264,W LABURNUM AVE/NOBLE AVE,37.584762,-77.443263
91,Route #91,"1,451",2265,W LABURNUM AVE/CHAMBERLAYNE AVE,37.584655,-77.446952
91,Route #91,"1,452",837,LABURNUM/FAUQUIER,37.584557,-77.451885
91,Route #91,"1,453",2268,W LABURNUM AVE/MACARTHUR ST,37.584365,-77.458405
91,Route #91,"1,454",2269,W LABURNUM AVE/HERMITAGE RD,37.584245,-77.463315
91,Route #91,"1,455",2272,W LABURNUM AVE/ROSEDALE AVE,37.584098,-77.46887
91,Route #91,"1,456",2270,SAUNDERS AVE/LABURNMUM AVE,37.582049,-77.471728
91,Route #91,"1,457",2271,SAUNDERS AVE/SEDDON WAY,37.580864,-77.471727
91,Route #91,"1,458",2274,WESTWOOD/TOMLYNN,37.575785,-77.479459
91,Route #91,"1,459",2275,WESTWOOD AVE/BROAD ST,37.57367,-77.483583
91,Route #91,"1,460",687,BROAD/COMMONWEALTH,37.576858,-77.487443
91,Route #91,"1,461",688,BROAD/WESTMORELAND,37.578423,-77.489352
91,Route #91,"1,462",690,BROAD/CHANTILLY,37.580547,-77.491893
91,Route #91,"1,463",691,BROAD/STAPLES MILL,37.581968,-77.493618
91,Route #91,"1,464",2596,WILLOW LAWN/MARKEL,37.583688,-77.497703
91,Route #91,"1,465",822,MARKEL/BYRD,37.584283,-77.499476
91,Route #91,"1,466",823,BYRD/OLD RICHMOND,37.584543,-77.500908
91,Route #91,"1,467",824,BYRD/FITZHUGH,37.583716,-77.501721
93,Route #93,"1,468",2188,BROOK RD/AZALEA,37.600247,-77.454232
93,Route #93,"1,469",2680,BROOK/WESTBROOK,37.597455,-77.453722
93,Route #93,"1,470",2682,BROOK/WESTMINSTER,37.59412,-77.453103
93,Route #93,"1,471",865,BROOK/BELLEVUE,37.591123,-77.452576
93,Route #93,"1,472",866,BROOK/CLAREMONT,37.58835,-77.451998
93,Route #93,"1,473",868,BROOK/AVONDALE,37.58622,-77.451578
93,Route #93,"1,474",1238,CHAMBERLAYNE/LABURNUM,37.584899,-77.447243
93,Route #93,"1,475",1239,CHAMBERLAYNE/ORDWAY,37.58713,-77.447667
93,Route #93,"1,476",3339,Chamberlayne/Bellevue,37.59127,-77.44831
93,Route #93,"1,477",3340,Chamberlayne/Westbrook,37.596929,-77.44928
93,Route #93,"1,478",3341,Chamberlayne/Watkins,37.59936,-77.449664
93,Route #93,"1,479",2187,Azalea/Seminary,37.601741,-77.452458
93,Route #93,"1,480",2737,BROOK/WALMART NHOOD MKT,37.603674,-77.454592
93,Route #93,"1,481",3344,Atlantic at Brook Run Apartments,37.614202,-77.459209
93,Route #93,"1,482",3345,Brook/Brook Run,37.609193,-77.457041
93,Route #93,"1,483",1250,BROOK/AZALEA,37.600762,-77.454024
93,Route #93,"1,484",1252,AZALEA/WEST SEMINARY,37.601395,-77.45327
93,Route #93,"1,485",2809,CHAMBERLAYNE/ACROSS FROM BROOKHILL AZALA,37.604301,-77.450207
93,Route #93,"1,486",2175,GRAMMARCY CIRCLE/KIRKSTONE LANE,37.612788,-77.443972
93,Route #93,"1,487",2522,CRENSHAW RD/BROOK HILL RD,37.60688,-77.443837
93,Route #93,"1,488",2162,AZALEA/CRENSHAW AVENUE (NEAR PINE CAMP),37.602115,-77.44762
93,Route #93,"1,489",2731,AZALEA/ELIZABETH,37.602305,-77.442215
93,Route #93,"1,490",2164,DEPARTMENT FOR THE BLIND AND VISION IMPAIRED/RE,37.60194,-77.436103
93,Route #93,"1,491",2165,Azalea/Sandpiper,37.602507,-77.433389
93,Route #93,"1,492",2166,Azalea Avenue at Meadowood Church,37.60264,-77.430491
93,Route #93,"1,493",2168,PONY FARM DRIVE/KIRKLAND DRIVE (CLUBHOUSE),37.60556,-77.427545
93,Route #93,"1,494",2205,PONY FARM DR/PERCHERON CT,37.60772,-77.427739
93,Route #93,"1,495",2171,PONY FARM DRIVE/NEAR QUEENS THORPE COURT,37.609427,-77.425288
93,Route #93,"1,496",2179,WILKINSON ROAD/PONY FARM DRIVE,37.607464,-77.424961
93,Route #93,"1,497",2180,WILKINSON ROAD/KIRKLAND DRIVE,37.605862,-77.425112
93,Route #93,"1,498",2181,WILKINSON/AZALEA,37.603832,-77.424907
93,Route #93,"1,499",2182,AZALEA/PONY FARM DRIVE,37.602905,-77.427243
93,Route #93,"1,500",2183,Azalea at Henrico High School,37.602792,-77.430557
93,Route #93,"1,501",2808,AZALEA/SANPIPER,37.602643,-77.433155
93,Route #93,"1,502",2184,AZALEA/WOODROW,37.602425,-77.443377
93,Route #93,"1,503",2521,BROOK HILL RD/CRENSHAW RD,37.607357,-77.444187
93,Route #93,"1,504",2178,CHAMBERLAYNE/BROOK HILL AZALEA SHOPPING CENTER,37.603894,-77.450631
93,Route #93,"1,505",2185,AZALEA/CRENSHAW,37.602345,-77.447222
93,Route #93,"1,506",1253,CHAMBERLAYNE/AZALEA,37.601273,-77.45029
93,Route #93,"1,507",1254,CHAMBERLAYNE/WATKINS,37.599441,-77.449964
93,Route #93,"1,508",1255,CHAMBERLAYNE/WESTBROOK,37.59706,-77.449567
93,Route #93,"1,509",1256,CHAMBERLAYNE/WESTMINSTER,37.594155,-77.449067
93,Route #93,"1,510",1257,CHAMBERLAYNE/BELLEVUE,37.591212,-77.448582
93,Route #93,"1,511",1258,CHAMBERLAYNE/CLAREMONT,37.587945,-77.447985
93,Route #93,"1,512",1259,CHAMBERLAYNE/ORDWAY,37.586768,-77.447787
93,Route #93,"1,513",2482,BROOK/LABURNUM,37.584809,-77.45109
93,Route #93,"1,514",1242,BROOK/CLAREMONT,37.588303,-77.451817
93,Route #93,"1,515",1244,BROOK/BELLEVUE,37.591316,-77.452324
93,Route #93,"1,516",1246,BROOK/WESTMINSTER,37.594163,-77.452849
93,Route #93,"1,517",1248,BROOK/WESTBROOK,37.597092,-77.453373
95,Route #95,"1,518",2588,PETERSBURG TRANSIT CENTER,37.226432,-77.405197
95,Route #95,"1,519",304,17TH/MARSHALL,37.536748,-77.425495
95,Route #95,"1,520",3104,14TH/FRANKLIN,37.5364,-77.43127
95,Route #95,"1,521",309,MAIN/13TH,37.53626,-77.432866
95,Route #95,"1,522",310,MAIN/11TH,37.537213,-77.434363
95,Route #95,"1,523",311,MAIN/10TH,37.538202,-77.436136
95,Route #95,"1,524",312,MAIN/8TH,37.538738,-77.437021
95,Route #95,"1,525",313,7TH/FRANKLIN,37.540019,-77.437346
95,Route #95,"1,526",296,7TH/MARSHALL,37.542527,-77.434865
95,Route #95,"1,527",1131,7TH/MAIN,37.539163,-77.438136
95,Route #95,"1,528",297,MARSHALL/7TH,37.542469,-77.434554
95,Route #95,"1,529",3057,BROAD/9TH,37.541063,-77.434492
95,Route #95,"1,530",95,BROAD/10TH,37.540049,-77.43282
95,Route #95,"1,531",3105,BROAD/11TH,37.539237,-77.43153
102,Route #102,"1,532",2972,PLAZA/SOUTHSIDE COMMUNITY SERVICE CENTER,37.50223,-77.47545
102,Route #102,"1,533",2883,PLAZA/BELT BOULEVARD,37.503387,-77.47588
102,Route #102,"1,534",1448,BELT BOULEVARD/WACHOVIA BANK,37.504205,-77.475785
102,Route #102,"1,535",1450,BELT AT GRTC ADMINISTRATION BUILDING,37.505437,-77.479305
102,Route #102,"1,536",3071,BELT BOULEVARD/185 BELT BOULEVARD,37.506097,-77.481197
102,Route #102,"1,537",3072,BELT BOULEVARD/141 BELT BOULEVARD,37.506743,-77.483029
102,Route #102,"1,538",3073,WESTOVER HILLS BOULEVARD/CRUTCHFIELD,37.511135,-77.487492
102,Route #102,"1,539",1454,WESTOVER HILLS BOULEVARD/BRENTWOOD SOUTH APTS,37.513578,-77.489089
102,Route #102,"1,540",2974,WESTOVER HILLS BOULEVARD/BASSETT,37.51505,-77.48877
102,Route #102,"1,541",1614,FOREST HILL/WESTOVER HILLS BOULEVARD,37.52081,-77.487928
102,Route #102,"1,542",1458,FOREST HILL/47TH,37.520481,-77.486156
102,Route #102,"1,543",1461,FOREST HILL/TAYLOR,37.51965,-77.48157
102,Route #102,"1,544",1463,FOREST HILL/41ST,37.517865,-77.477613
102,Route #102,"1,545",1464,FOREST HILL/ROANOKE,37.516395,-77.47433
102,Route #102,"1,546",1914,SEMMES/34TH,37.515872,-77.469372
102,Route #102,"1,547",1916,SEMMES/30TH,37.51773,-77.464675
102,Route #102,"1,548",2975,SEMMES/26TH,37.51959,-77.46003
102,Route #102,"1,549",2003,SEMMES/14TH,37.524032,-77.449944
102,Route #102,"1,550",2005,SEMMES/12TH,37.52538,-77.447818
102,Route #102,"1,551",2006,SEMMES/10TH,37.526083,-77.446713
102,Route #102,"1,552",3055,BROAD/12TH,37.539599,-77.431641
102,Route #102,"1,553",125,BROAD/9TH,37.54079,-77.433617
102,Route #102,"1,554",3244,BROAD/7TH,37.541538,-77.434838
102,Route #102,"1,555",128,BROAD/4TH,37.543761,-77.438541
102,Route #102,"1,556",3084,Broad/Adams,37.546367,-77.443014
102,Route #102,"1,557",134,BROAD/HENRY,37.548473,-77.446407
102,Route #102,"1,558",3587,Junction/S Washington Hwy (Route 1),37.75573,-77.470041
102,Route #102,"1,559",2902,FOREST HILL/PRINCE ARTHUR,37.522757,-77.491338
102,Route #102,"1,560",2903,FOREST HILL/DORCHESTER,37.524628,-77.494835
102,Route #102,"1,561",1871,FOREST HILL/LEICESTER,37.526167,-77.497779
102,Route #102,"1,562",2904,FOREST HILL/LANGDON,37.52832,-77.500875
102,Route #102,"1,563",1722,FOREST HILL/PINEWAY,37.530817,-77.505007
102,Route #102,"1,564",1723,FOREST HILL/FAIRLEE,37.53268,-77.506922
102,Route #102,"1,565",2678,KING/#39;S DOMINION EMPLOYEE ENTRANCE,37.84196,-77.445983
102,Route #102,"1,566",3463,Belvidere/Franklin,37.546971,-77.44895
102,Route #102,"1,567",3460,Belvidere/Cary,37.544555,-77.449199
102,Route #102,"1,568",1889,BELVIDERE/IDLEWOOD,37.541462,-77.449345
102,Route #102,"1,569",1890,BELVIDERE/SPRING,37.538823,-77.4494
102,Route #102,"1,570",1891,BELVIDERE/HOLLY,37.536702,-77.4494
102,Route #102,"1,571",2587,COWARDIN/SEMMES,37.522673,-77.451555
102,Route #102,"1,572",2012,COWARDIN/WALL,37.520655,-77.450258
102,Route #102,"1,573",2013,COWARDIN/BAINBRIDGE,37.518668,-77.449027
102,Route #102,"1,574",1584,HULL/COWARDIN,37.517968,-77.448907
102,Route #102,"1,575",3074,HULL/21ST,37.51624,-77.451647
102,Route #102,"1,576",1587,HULL/24TH,37.514493,-77.454387
102,Route #102,"1,577",1588,HULL/EVANS,37.513045,-77.456671
102,Route #102,"1,578",3075,HULL/28TH,37.512057,-77.458227
102,Route #102,"1,579",1590,HULL/TYNICK,37.511017,-77.459891
102,Route #102,"1,580",3076,HULL/SWANSBORO LANE,37.509125,-77.462786
102,Route #102,"1,581",3077,HULL/BLAKE LANE,37.507942,-77.464856
102,Route #102,"1,582",3078,HULL/33RD,37.506793,-77.466433
102,Route #102,"1,583",1595,HULL/35TH,37.506007,-77.467648
102,Route #102,"1,584",3079,HULL/37TH,37.504952,-77.469287
102,Route #102,"1,585",1597,HULL ST/SPAINE,37.503608,-77.471588
108,PULSE,"1,586",3025,WILLOW LAWN BRT STATION,37.58458,-77.49725
108,PULSE,"1,587",3025,WILLOW LAWN STATION,37.58458,-77.49725
108,PULSE,"1,588",3040,EB STAPLES MILL BRT STATION,37.57956,-77.49111
108,PULSE,"1,589",3040,STAPLES  MILL EASTBOUND STATION,37.57956,-77.49111
108,PULSE,"1,590",3027,EB SCOTT'S ADDITION BRT STATION,37.565318,-77.473893
108,PULSE,"1,591",3027,SCOTTS ADDITION EASTBOUND  STATION,37.565318,-77.473893
108,PULSE,"1,592",3028,EB SCIENCE MUSEUM BRT STATION,37.56133,-77.468172
108,PULSE,"1,593",3028,SCIENCE MUSEUM EASTBOUND STATION,37.56133,-77.468172
108,PULSE,"1,594",3029,ALLISON ST EASTBOUND STATION,37.557555,-77.46183
108,PULSE,"1,595",3029,EB ALLISON ST BRT STATION,37.557555,-77.46183
108,PULSE,"1,596",3030,EB VCU/VUU BRT STATION,37.550703,-77.450322
108,PULSE,"1,597",3030,VCU VUU EASTBOUND STATION,37.550703,-77.450322
108,PULSE,"1,598",3031,ARTS DISTRICT EASTBOUND STATION,37.54584,-77.442247
108,PULSE,"1,599",3031,EB ARTS DISTRICT BRT STATION,37.54584,-77.442247
108,PULSE,"1,600",3085,CONVENTION CENTER EASTBOUND STATION,37.543058,-77.43775
108,PULSE,"1,601",3085,EB CONVENTION CENTER BRT STATION,37.543058,-77.43775
108,PULSE,"1,602",3086,EB GOVERNMENT CENTER BRT STATION,37.540856,-77.434078
108,PULSE,"1,603",3086,GOVERNMENT CENTER EASTBOUND STATION,37.540856,-77.434078
108,PULSE,"1,604",3087,EB VCU MEDICAL CENTER BRT STATION,37.53901,-77.430938
108,PULSE,"1,605",3087,VCU MEDICAL CENTER EASTBOUND STATION,37.53901,-77.430938
108,PULSE,"1,606",3035,EB MAIN STREET STATION BRT STATION,37.533717,-77.429007
108,PULSE,"1,607",3035,MAIN STREET STATION EASTBOUND STATION,37.533717,-77.429007
108,PULSE,"1,608",3036,EB SHOCKOE BOTTOM BRT STATION,37.529433,-77.42195
108,PULSE,"1,609",3036,SHOCKOE BOTTOM EASTBOUND STATION,37.529433,-77.42195
108,PULSE,"1,610",3037,EAST RIVERFRONT EASTBOUND STATION,37.52166,-77.416387
108,PULSE,"1,611",3037,EB EAST RIVERFRONT BRT STATION,37.52166,-77.416387
108,PULSE,"1,612",3012,ROCKETTS LANDING BRT STATION,37.517703,-77.414765
108,PULSE,"1,613",3012,ROCKETTS LANDING STATION,37.517703,-77.414765
108,PULSE,"1,614",3013,EAST RIVERFRONT WESTBOUND STATION,37.521763,-77.416347
108,PULSE,"1,615",3013,WB EAST RIVERFRONT BRT STATION,37.521763,-77.416347
108,PULSE,"1,616",3014,SHOCKOE BOTTOM WESTBOUND STATION,37.529548,-77.421998
108,PULSE,"1,617",3014,WB SHOCKOE BOTTOM BRT STATION,37.529548,-77.421998
108,PULSE,"1,618",3088,MAIN STREET STATION WESTBOUND STATION,37.53454,-77.43019
108,PULSE,"1,619",3088,WB MAIN STREET STATION BRT STATION,37.53454,-77.43019
